address,x_coord,y_coord,car_park_type,type_of_parking_system,short_term_parking,free_parking,night_parking,car_park_decks,gantry_height,car_park_basement,car_park_lots,latitude,longitude,planning_area
BLK 270/271 ALBERT CENTRE BASEMENT CAR PARK,30314.7936,31490.4942,OTHERS,ELECTRONIC_PARKING,WHOLE_DAY,NO,1,1,1.8,1,82.0,1.3010632720874935,103.85411804993093,ROCHOR
BLK 98A ALJUNIED CRESCENT,33758.4143,33695.5198,MULTI-STOREY_CAR_PARK,ELECTRONIC_PARKING,WHOLE_DAY,SUN_&_PH_FR_7AM-10.30PM,1,5,2.1,0,315.0,1.321004290105958,103.88506094761526,invalid
BLK 227 ANG MO KIO ST 23,28777.0707,38973.9528,MULTI-STOREY_CAR_PARK,ELECTRONIC_PARKING,WHOLE_DAY,NO,1,6,2.15,0,225.0,1.368741094555009,103.84030110265232,invalid
BLK 256A ANG MO KIO STREET 21,28267.0582,39151.8344,MULTI-STOREY_CAR_PARK,ELECTRONIC_PARKING,WHOLE_DAY,SUN_&_PH_FR_7AM-10.30PM,1,2,2.15,0,115.0,1.3703498012136093,103.83571828515707,invalid
BLK 308C ANG MO KIO AVE 1,29257.6457,38619.9953,MULTI-STOREY_CAR_PARK,ELECTRONIC_PARKING,7AM-10.30PM,NO,0,3,2.15,0,454.0,1.3655400127862602,103.84461939021944,ANG MO KIO
BLK 260 ANG MO KIO ST 21,28134.9305,38989.9965,MULTI-STOREY_CAR_PARK,ELECTRONIC_PARKING,WHOLE_DAY,SUN_&_PH_FR_7AM-10.30PM,1,6,2.15,0,225.0,1.3688861979339517,103.83453102382236,invalid
BLK 309B ANG MO KIO ST 31,29421.1502,38526.8611,MULTI-STOREY_CAR_PARK,ELECTRONIC_PARKING,WHOLE_DAY,SUN_&_PH_FR_7AM-10.30PM,1,12,2.15,0,606.0,1.3646977329371157,103.84608858611787,ANG MO KIO
BLK 316B ANG MO KIO STREET 31,29595.2539,38514.7606,MULTI-STOREY_CAR_PARK,ELECTRONIC_PARKING,WHOLE_DAY,SUN_&_PH_FR_7AM-10.30PM,1,12,2.15,0,463.0,1.3645882914751233,103.84765302635255,invalid
BLK 255A ANG MO KIO ST 21,28117.7689,39172.0389,MULTI-STOREY_CAR_PARK,ELECTRONIC_PARKING,WHOLE_DAY,NO,1,2,2.15,0,91.0,1.3705325244610682,103.8343768155435,invalid
BLK 455 ANG MO KIO ST 44,30669.2379,38959.5487,MULTI-STOREY_CAR_PARK,ELECTRONIC_PARKING,WHOLE_DAY,SUN_&_PH_FR_7AM-10.30PM,1,7,2.15,0,460.0,1.3686107186719911,103.85730354666772,invalid
BLK 588 ANG MO KIO STREET 52,30234.4145,39354.0323,MULTI-STOREY_CAR_PARK,ELECTRONIC_PARKING,WHOLE_DAY,NO,1,5,2.15,0,408.0,1.3721783233233986,103.85339638441636,invalid
BLK 700 ANG MO KIO AVE 6,29489.025,39103.7605,MULTI-STOREY_CAR_PARK,ELECTRONIC_PARKING,WHOLE_DAY,SUN_&_PH_FR_7AM-10.30PM,1,12,2.15,0,337.0,1.36991500171885,103.84669851649707,invalid
BLK 590 ANG MO KIO ST 51,30201.236,39274.274,MULTI-STOREY_CAR_PARK,ELECTRONIC_PARKING,WHOLE_DAY,SUN_&_PH_FR_7AM-10.30PM,1,12,2.15,0,549.0,1.3714570202946887,103.8530982460575,ANG MO KIO
BLK 596 ANG MO KIO STREEET 52,30004.2224,39370.6063,MULTI-STOREY_CAR_PARK,ELECTRONIC_PARKING,WHOLE_DAY,SUN_&_PH_FR_7AM-10.30PM,1,12,2.15,0,567.0,1.3723282292064205,103.85132794564865,ANG MO KIO
BLK 130A ANG MO KIO ST 12,28950.7223,39184.6976,MULTI-STOREY_CAR_PARK,ELECTRONIC_PARKING,WHOLE_DAY,SUN_&_PH_FR_7AM-10.30PM,1,4,2.15,0,425.0,1.3706469901715552,103.84186149048293,ANG MO KIO
BLK 132A ANG MO KIO ST 12,28960.3285,39294.4158,MULTI-STOREY_CAR_PARK,ELECTRONIC_PARKING,WHOLE_DAY,SUN_&_PH_FR_7AM-10.30PM,1,4,2.15,0,230.0,1.3716392420558625,103.84194781252431,ANG MO KIO
BLK 352A ANG MO KIO STREET 32,29961.0968,38457.9118,MULTI-STOREY_CAR_PARK,ELECTRONIC_PARKING,WHOLE_DAY,SUN_&_PH_FR_7AM-10.30PM,1,12,2.15,0,644.0,1.3640741492788182,103.85094037122893,invalid
BLK 2A DOVER ROAD,22474.205,31687.9608,MULTI-STOREY_CAR_PARK,ELECTRONIC_PARKING,WHOLE_DAY,SUN_&_PH_FR_7AM-10.30PM,1,10,2.15,0,196.0,1.3028486840208213,103.7836667743235,QUEENSTOWN
BLK 28 DOVER CRESCENT,22252.486,31896.9749,MULTI-STOREY_CAR_PARK,ELECTRONIC_PARKING,WHOLE_DAY,SUN_&_PH_FR_7AM-10.30PM,1,16,2.15,0,696.0,1.3047388928304118,103.78167448932494,invalid
BLK 19A DOVER CRESCENT,22562.8641,32184.9758,MULTI-STOREY_CAR_PARK,ELECTRONIC_PARKING,WHOLE_DAY,SUN_&_PH_FR_7AM-10.30PM,1,12,2.15,0,506.0,1.3073435265931934,103.78446333008445,invalid
BLK 12A DOVER CLOSE EAST,22643.9533,31900.5591,MULTI-STOREY_CAR_PARK,ELECTRONIC_PARKING,WHOLE_DAY,SUN_&_PH_FR_7AM-10.30PM,1,7,2.15,0,295.0,1.3047713772680514,103.78519200383909,invalid
BLK 347A ANG MO KIO AVENUE 3,29735.5099,38818.5301,MULTI-STOREY_CAR_PARK,ELECTRONIC_PARKING,WHOLE_DAY,SUN_&_PH_FR_7AM-10.30PM,1,10,1.9,0,544.0,1.367335466453611,103.8489133401171,ANG MO KIO
BLK 712A ANG MO KIO AVE 3/6,29508.9218,39208.8091,MULTI-STOREY_CAR_PARK,ELECTRONIC_PARKING,WHOLE_DAY,SUN_&_PH_FR_7AM-10.30PM,1,14,1.8,0,870.0,1.370865022700113,103.84687730858266,invalid
BLK 613A ANG MO KIO AVENUE 4,28613.8871,39995.2242,MULTI-STOREY_CAR_PARK,ELECTRONIC_PARKING,WHOLE_DAY,NO,1,9,2.0,0,308.0,1.377977111891698,103.83883480497552,invalid
BLK 104C ANG MO KIO STREET 11,28556.1477,39318.8058,MULTI-STOREY_CAR_PARK,ELECTRONIC_PARKING,WHOLE_DAY,SUN_&_PH_FR_7AM-10.30PM,1,10,2.0,0,234.0,1.3718598268833135,103.8383159614014,ANG MO KIO
BLK 323A ANG MO KIO AVENUE 3,29612.0323,38838.7824,MULTI-STOREY_CAR_PARK,ELECTRONIC_PARKING,WHOLE_DAY,SUN_&_PH_FR_7AM-10.30PM,1,12,2.15,0,670.0,1.3675186280077751,103.84780380928078,invalid
106 BIDADARI PARK DRIVE,32171.1116,35094.0857,MULTI-STOREY_CAR_PARK,ELECTRONIC_PARKING,WHOLE_DAY,SUN_&_PH_FR_7AM-10.30PM,1,8,2.15,0,363.0,1.3336526799354937,103.87079839427501,invalid
BLK 117 ALKAFF CRESCENT,32444.5217,35453.6678,MULTI-STOREY_CAR_PARK,ELECTRONIC_PARKING,WHOLE_DAY,SUN_&_PH_FR_7AM-10.30PM,1,8,2.15,0,425.0,1.3369045733012812,103.87325519193998,invalid
BLK 101 BIDADARI PARK DRIVE,32225.0311,35371.0933,MULTI-STOREY_CAR_PARK,ELECTRONIC_PARKING,WHOLE_DAY,NO,1,2,2.2,0,445.0,1.3361578304439936,103.87128293005257,TOA PAYOH
BLK 113 ALKAFF CRESCENT,32410.3926,35271.7364,MULTI-STOREY_CAR_PARK,ELECTRONIC_PARKING,WHOLE_DAY,NO,1,8,2.15,0,432.0,1.3352592556272456,103.87294849581734,invalid
BLK 232 BRAS BASAH BASEMENT CAR PARK,30264.1776,30994.7597,OTHERS,ELECTRONIC_PARKING,WHOLE_DAY,NO,1,1,1.9,1,229.0,1.2965800277256125,103.85366320640063,invalid
BLK 188A BUKIT BATOK WEST AVE 6,18213.6562,36507.8169,MULTI-STOREY_CAR_PARK,ELECTRONIC_PARKING,WHOLE_DAY,SUN_&_PH_FR_7AM-10.30PM,1,10,2.0,0,401.0,1.3464366536863828,103.74538227425053,BUKIT BATOK
BLK 628A BUKIT BATOK CENTRAL,18714.471,36997.6927,MULTI-STOREY_CAR_PARK,ELECTRONIC_PARKING,WHOLE_DAY,SUN_&_PH_FR_7AM-10.30PM,1,11,2.15,0,369.0,1.3508670707092765,103.74988224837884,invalid
BLK 289H BUKIT BATOK STREET 25,19831.2917,36294.3127,MULTI-STOREY_CAR_PARK,ELECTRONIC_PARKING,WHOLE_DAY,SUN_&_PH_FR_7AM-10.30PM,1,12,2.15,0,379.0,1.344506283225649,103.75991777083962,BUKIT BATOK
BLK 288H BUKIT BATOK STREET 25,19860.3631,36409.798,MULTI-STOREY_CAR_PARK,ELECTRONIC_PARKING,WHOLE_DAY,SUN_&_PH_FR_7AM-10.30PM,1,13,2.15,0,379.0,1.3455506982843084,103.76017896379179,invalid
BLK 290H BUKIT BATOK STREET 24,19610.472,36154.6192,MULTI-STOREY_CAR_PARK,ELECTRONIC_PARKING,WHOLE_DAY,SUN_&_PH_FR_7AM-10.30PM,1,4,2.0,0,412.0,1.3432428850770275,103.75793361152421,BUKIT BATOK
BLK 291F BUKIT BATOK STREET 24,19289.8168,36112.2533,MULTI-STOREY_CAR_PARK,ELECTRONIC_PARKING,WHOLE_DAY,SUN_&_PH_FR_7AM-10.30PM,1,4,2.0,0,412.0,1.3428596521147578,103.75505234518015,BUKIT BATOK
BLK 154A BUKIT BATOK WEST AVE 8,18025.9428,36609.4062,MULTI-STOREY_CAR_PARK,ELECTRONIC_PARKING,WHOLE_DAY,SUN_&_PH_FR_7AM-10.30PM,1,8,2.0,0,176.0,1.3473553282589252,103.74369552196029,BUKIT BATOK
BLK 622A BUKIT BATOK CENTRAL,18561.8095,36898.4253,MULTI-STOREY_CAR_PARK,ELECTRONIC_PARKING,WHOLE_DAY,NO,1,6,2.15,0,320.0,1.3499692848447977,103.74851052070392,BUKIT BATOK
BLK 395A BUKIT BATOK WEST AVE 5,18924.8161,38652.2819,MULTI-STOREY_CAR_PARK,ELECTRONIC_PARKING,WHOLE_DAY,SUN_&_PH_FR_7AM-10.30PM,1,16,2.15,0,1594.0,1.3658306352822907,103.75177182867174,BUKIT BATOK
BLK 135A BISHAN STREET 12,30026.4687,36336.1338,MULTI-STOREY_CAR_PARK,ELECTRONIC_PARKING,WHOLE_DAY,SUN_&_PH_FR_7AM-10.30PM,1,5,1.9,0,250.0,1.344885540917709,103.85152763920905,BISHAN
BLK 167A BISHAN STREET 13,30460.9446,36576.481,MULTI-STOREY_CAR_PARK,ELECTRONIC_PARKING,WHOLE_DAY,SUN_&_PH_FR_7AM-10.30PM,1,5,1.9,0,416.0,1.3470591230008566,103.85543169019655,BISHAN
BLK 152A BISHAN STREET 11,30394.9029,36366.7901,MULTI-STOREY_CAR_PARK,ELECTRONIC_PARKING,WHOLE_DAY,SUN_&_PH_FR_7AM-10.30PM,1,6,1.9,0,416.0,1.3451627584912207,103.85483824803856,BISHAN
BLK 505 BISHAN STREET 11,29707.8648,36779.0905,MULTI-STOREY_CAR_PARK,ELECTRONIC_PARKING,WHOLE_DAY,SUN_&_PH_FR_7AM-10.30PM,1,9,1.9,0,450.0,1.348891503524757,103.84866481348335,BISHAN
BLK 514 BISHAN STREET 13,29830.0702,36912.2681,MULTI-STOREY_CAR_PARK,ELECTRONIC_PARKING,WHOLE_DAY,NO,1,2,1.8,0,561.0,1.350095907120638,103.8497629135692,BISHAN
BLK 207A BISHAN STREET 23,29668.2541,37471.6058,MULTI-STOREY_CAR_PARK,ELECTRONIC_PARKING,WHOLE_DAY,SUN_&_PH_FR_7AM-10.30PM,1,5,1.9,0,545.0,1.3551543675245747,103.8483089249273,BISHAN
BLK 212A BISHAN STREET 23,29704.1126,37637.6725,MULTI-STOREY_CAR_PARK,ELECTRONIC_PARKING,WHOLE_DAY,SUN_&_PH_FR_7AM-10.30PM,1,5,1.9,0,545.0,1.3566562135466171,103.84863114624726,BISHAN
BLK 410A SIN MING AVE,28240.0745,38359.6695,MULTI-STOREY_CAR_PARK,ELECTRONIC_PARKING,WHOLE_DAY,SUN_&_PH_FR_7AM-10.30PM,1,9,2.1,0,225.0,1.3631857448141895,103.8354758112253,BISHAN
BLK 231A BISHAN STREET 23,29460.8559,37726.9889,MULTI-STOREY_CAR_PARK,ELECTRONIC_PARKING,WHOLE_DAY,SUN_&_PH_FR_7AM-10.30PM,1,5,1.9,0,546.0,1.3574639721486652,103.84644532993391,BISHAN
BLK 237A BISHAN STREET 22,29486.1335,37915.7452,MULTI-STOREY_CAR_PARK,ELECTRONIC_PARKING,WHOLE_DAY,SUN_&_PH_FR_7AM-10.30PM,1,5,1.9,0,568.0,1.3591710155830472,103.84667247515101,BISHAN
BLK 246A BISHAN STREET 22,29146.6066,38113.6749,MULTI-STOREY_CAR_PARK,ELECTRONIC_PARKING,WHOLE_DAY,SUN_&_PH_FR_7AM-10.30PM,1,5,1.85,0,568.0,1.3609610362378004,103.84362160812951,BISHAN
BLK 282 BISHAN STREET 22,29235.553,37787.1371,MULTI-STOREY_CAR_PARK,ELECTRONIC_PARKING,WHOLE_DAY,SUN_&_PH_FR_7AM-10.30PM,1,2,1.95,0,546.0,1.3580079412271227,103.84442083770412,BISHAN
BLK 263A BISHAN STREET 22,28962.9515,37918.5499,MULTI-STOREY_CAR_PARK,ELECTRONIC_PARKING,7AM-10.30PM,SUN_&_PH_FR_7AM-10.30PM,0,10,1.9,0,568.0,1.3591964018143061,103.84197133762822,BISHAN
BLK 268A BISHAN STREET 24,29037.3835,37710.0917,MULTI-STOREY_CAR_PARK,ELECTRONIC_PARKING,WHOLE_DAY,SUN_&_PH_FR_7AM-10.30PM,1,10,1.9,0,507.0,1.357311177642305,103.84264015136309,BISHAN
BLK 290A BISHAN STREET 24,29249.7223,37516.6532,MULTI-STOREY_CAR_PARK,ELECTRONIC_PARKING,WHOLE_DAY,SUN_&_PH_FR_7AM-10.30PM,1,12,2.15,0,507.0,1.355561780622899,103.84454814694634,BISHAN
BLK 448A BRIGHT HILL DRIVE,27812.0967,37767.5494,MULTI-STOREY_CAR_PARK,ELECTRONIC_PARKING,WHOLE_DAY,SUN_&_PH_FR_7AM-10.30PM,1,10,2.15,0,300.0,1.3578308220309527,103.83163014387951,BISHAN
BLK 275 BISHAN ST 24,29152.4171,37599.2039,MULTI-STOREY_CAR_PARK,ELECTRONIC_PARKING,7AM-10.30PM,NO,0,6,2.15,0,507.0,1.3563083436627195,103.8436737995863,BISHAN
BLK 259B BANGKIT ROAD,21344.6326,39972.0102,OTHERS,ELECTRONIC_PARKING,WHOLE_DAY,NO,1,15,2.15,0,591.0,1.3777664235348215,103.77351523338471,BUKIT PANJANG
BLK 259A BANGKIT ROAD,21374.3071,39941.9395,MULTI-STOREY_CAR_PARK,ELECTRONIC_PARKING,7AM-10.30PM,NO,0,1,3.0,0,591.0,1.3774944817504973,103.77378188713317,BUKIT PANJANG
BLK 259A BANGKIT ROAD,21356.3257,39943.2707,MULTI-STOREY_CAR_PARK,ELECTRONIC_PARKING,WHOLE_DAY,SUN_&_PH_FR_7AM-10.30PM,1,10,1.9,0,591.0,1.3775065165718783,103.77362031087559,BUKIT PANJANG
BLK 401A FAJAR ROAD,20836.1138,40357.2456,MULTI-STOREY_CAR_PARK,ELECTRONIC_PARKING,WHOLE_DAY,SUN_&_PH_FR_7AM-10.30PM,1,5,1.9,0,554.0,1.3812502325627354,103.76894572813386,BUKIT PANJANG
BLK 453A FAJAR ROAD,21145.4428,40760.7142,MULTI-STOREY_CAR_PARK,ELECTRONIC_PARKING,WHOLE_DAY,SUN_&_PH_FR_7AM-10.30PM,1,10,2.15,0,491.0,1.384899130104685,103.77172518427943,BUKIT PANJANG
BLK 449A BUKIT PANJANG RING ROAD,21253.8552,40640.1785,MULTI-STOREY_CAR_PARK,ELECTRONIC_PARKING,WHOLE_DAY,SUN_&_PH_FR_7AM-10.30PM,1,10,2.15,0,491.0,1.3838090743064257,103.77269937922769,BUKIT PANJANG
BLK 442A FAJAR ROAD,21059.217,40510.9727,MULTI-STOREY_CAR_PARK,ELECTRONIC_PARKING,WHOLE_DAY,SUN_&_PH_FR_7AM-10.30PM,1,10,2.15,0,497.0,1.3826405383885618,103.77095043939036,BUKIT PANJANG
BLK 170A LOMPANG ROAD,20457.7599,40100.1252,MULTI-STOREY_CAR_PARK,ELECTRONIC_PARKING,WHOLE_DAY,NO,1,12,2.15,0,672.0,1.378924834192692,103.76554600407277,BUKIT PANJANG
BLK 505A JELAPANG ROAD,20695.6095,40765.0345,MULTI-STOREY_CAR_PARK,ELECTRONIC_PARKING,WHOLE_DAY,SUN_&_PH_FR_7AM-10.30PM,1,12,2.15,0,760.0,1.3849380921344518,103.76768309161008,BUKIT PANJANG
BLK 510A JELAPANG ROAD,20839.8705,40996.2639,MULTI-STOREY_CAR_PARK,ELECTRONIC_PARKING,WHOLE_DAY,SUN_&_PH_FR_7AM-10.30PM,1,12,2.15,0,700.0,1.3870292824106258,103.76897932907721,BUKIT PANJANG
BLK 513A JELAPANG ROAD,20672.7922,41096.8488,MULTI-STOREY_CAR_PARK,ELECTRONIC_PARKING,7AM-10.30PM,SUN_&_PH_FR_7AM-10.30PM,0,2,2.15,0,100.0,1.3879388940244672,103.76747797804047,BUKIT PANJANG
BLK 518A JELAPANG ROAD,20612.4337,40944.82,MULTI-STOREY_CAR_PARK,ELECTRONIC_PARKING,WHOLE_DAY,SUN_&_PH_FR_7AM-10.30PM,1,12,2.15,0,368.0,1.3865639857228234,103.76693564904001,BUKIT PANJANG
BLK 234A BUKIT PANJANG RING ROAD,21177.2481,40121.6311,MULTI-STOREY_CAR_PARK,ELECTRONIC_PARKING,WHOLE_DAY,SUN_&_PH_FR_7AM-10.30PM,1,12,2.15,0,591.0,1.3791195021651246,103.7720111271445,BUKIT PANJANG
BLK 517A JELAPANG ROAD,20565.9376,41081.058,MULTI-STOREY_CAR_PARK,ELECTRONIC_PARKING,WHOLE_DAY,SUN_&_PH_FR_7AM-10.30PM,1,2,2.15,0,142.0,1.3877960606883626,103.76651781167364,BUKIT PANJANG
BLK 521A JELAPANG ROAD,20498.7021,40997.6232,MULTI-STOREY_CAR_PARK,ELECTRONIC_PARKING,WHOLE_DAY,SUN_&_PH_FR_7AM-10.30PM,1,2,2.15,0,137.0,1.3870414895407535,103.76591367064594,BUKIT PANJANG
BLK 525A JELAPANG ROAD,20434.7146,40912.3617,MULTI-STOREY_CAR_PARK,ELECTRONIC_PARKING,WHOLE_DAY,SUN_&_PH_FR_7AM-10.30PM,1,2,2.15,0,385.0,1.386270399087044,103.76533871621312,BUKIT PANJANG
BLK 529A JELAPANG ROAD,20361.9478,40819.6691,MULTI-STOREY_CAR_PARK,ELECTRONIC_PARKING,WHOLE_DAY,SUN_&_PH_FR_7AM-10.30PM,1,12,2.15,0,344.0,1.3854321020503486,103.7646848754351,BUKIT PANJANG
BLK 533A BUKIT PANJANG RING ROAD,20221.922,40787.0081,MULTI-STOREY_CAR_PARK,ELECTRONIC_PARKING,WHOLE_DAY,SUN_&_PH_FR_7AM-10.30PM,1,7,2.15,0,218.0,1.3851366908698401,103.76342664649454,BUKIT PANJANG
BLK 537A BUKIT PANJANG RING ROAD,20158.8662,40686.9514,MULTI-STOREY_CAR_PARK,ELECTRONIC_PARKING,WHOLE_DAY,SUN_&_PH_FR_7AM-10.30PM,1,7,2.15,0,556.0,1.3842317977235148,103.76286006929963,BUKIT PANJANG
BLK 541A BUKIT PANJANG RING ROAD,20163.4889,40531.4817,MULTI-STOREY_CAR_PARK,ELECTRONIC_PARKING,WHOLE_DAY,SUN_&_PH_FR_7AM-10.30PM,1,11,2.15,0,652.0,1.3828257877526797,103.76290164919327,BUKIT PANJANG
BLK 152A GANGSA ROAD,20447.5641,39722.7569,MULTI-STOREY_CAR_PARK,ELECTRONIC_PARKING,WHOLE_DAY,SUN_&_PH_FR_7AM-10.30PM,1,12,2.15,0,511.0,1.3755120500520865,103.7654544839076,BUKIT PANJANG
BLK 163A GANGSA ROAD,20317.5802,39878.586,MULTI-STOREY_CAR_PARK,ELECTRONIC_PARKING,WHOLE_DAY,SUN_&_PH_FR_7AM-10.30PM,1,12,2.15,0,511.0,1.3769212779575655,103.76428644466158,BUKIT PANJANG
BLK 603A SENJA ROAD,20027.2654,40409.2626,MULTI-STOREY_CAR_PARK,ELECTRONIC_PARKING,WHOLE_DAY,SUN_&_PH_FR_7AM-10.30PM,1,12,2.15,0,502.0,1.381720445982174,103.76167761264911,BUKIT PANJANG
BLK 177A LOMPANG ROAD,20395.5322,40290.7701,MULTI-STOREY_CAR_PARK,ELECTRONIC_PARKING,WHOLE_DAY,NO,1,9,2.15,0,501.0,1.3806489411159282,103.76498679347908,BUKIT PANJANG
BLK 180A LOMPANG ROAD,20397.9729,40073.9347,MULTI-STOREY_CAR_PARK,ELECTRONIC_PARKING,WHOLE_DAY,NO,1,8,2.15,0,511.0,1.3786879613964398,103.76500878091232,BUKIT PANJANG
BLK 651A SENJA LINK,20352.8446,41013.5834,MULTI-STOREY_CAR_PARK,ELECTRONIC_PARKING,WHOLE_DAY,SUN_&_PH_FR_7AM-10.30PM,1,6,2.15,0,665.0,1.3871857898272917,103.76460302573584,BUKIT PANJANG
BLK 611A/613A/615A/616A BUKIT PANJANG RING ROAD/SENJA ROAD,20006.0358,40760.5616,MULTI-STOREY_CAR_PARK,ELECTRONIC_PARKING,WHOLE_DAY,SUN_&_PH_FR_7AM-10.30PM,1,6,2.15,0,1479.0,1.3848974600068813,103.76148675340319,BUKIT PANJANG
BLK 225A PETIR ROAD MSCP,21295.8798,39665.1802,MULTI-STOREY_CAR_PARK,ELECTRONIC_PARKING,WHOLE_DAY,SUN_&_PH_FR_7AM-10.30PM,1,5,1.9,0,591.0,1.3749915531813584,103.7730772236168,BUKIT PANJANG
BLK 468A SEGAR ROAD,21363.991,41123.9328,MULTI-STOREY_CAR_PARK,ELECTRONIC_PARKING,WHOLE_DAY,SUN_&_PH_FR_7AM-10.30PM,1,10,2.15,0,491.0,1.388183997698606,103.77368892264865,BUKIT PANJANG
BLK 181A JELEBU ROAD,20226.0907,40152.4974,MULTI-STOREY_CAR_PARK,ELECTRONIC_PARKING,WHOLE_DAY,NO,1,12,2.15,0,511.0,1.379398408707913,103.76346427312762,BUKIT PANJANG
BLK 185A JELEBU ROAD,20134.1254,40120.981,MULTI-STOREY_CAR_PARK,ELECTRONIC_PARKING,WHOLE_DAY,NO,1,12,2.15,0,320.0,1.379113361323433,103.76263790594537,BUKIT PANJANG
BLK 480A SEGAR ROAD,21168.4806,41302.9377,MULTI-STOREY_CAR_PARK,ELECTRONIC_PARKING,WHOLE_DAY,SUN_&_PH_FR_7AM-10.30PM,1,5,2.15,0,367.0,1.389802807641881,103.77193206988463,BUKIT PANJANG
BLK 476A SEGAR ROAD,21342.9805,41219.4493,MULTI-STOREY_CAR_PARK,ELECTRONIC_PARKING,WHOLE_DAY,SUN_&_PH_FR_7AM-10.30PM,1,7,2.15,0,367.0,1.3890478094024705,103.77350010545928,BUKIT PANJANG
BLK 625A SENJA ROAD,19927.0486,40913.764,MULTI-STOREY_CAR_PARK,ELECTRONIC_PARKING,WHOLE_DAY,SUN_&_PH_FR_7AM-10.30PM,1,13,2.15,0,604.0,1.3862829447414375,103.76077695178896,BUKIT PANJANG
BLK 629A SENJA ROAD,19723.7125,40870.4549,MULTI-STOREY_CAR_PARK,ELECTRONIC_PARKING,WHOLE_DAY,SUN_&_PH_FR_7AM-10.30PM,1,14,2.15,0,540.0,1.385891216047011,103.75894983505444,BUKIT PANJANG
BLK 455A SEGAR ROAD,21095.0855,41051.008,MULTI-STOREY_CAR_PARK,ELECTRONIC_PARKING,WHOLE_DAY,SUN_&_PH_FR_7AM-10.30PM,1,8,2.15,0,491.0,1.3875244297684308,103.77127261757724,BUKIT PANJANG
BLK 488A SEGAR ROAD,21094.1509,41309.8258,MULTI-STOREY_CAR_PARK,ELECTRONIC_PARKING,WHOLE_DAY,SUN_&_PH_FR_7AM-10.30PM,1,10,2.15,0,367.0,1.3898650835437794,103.77126415842334,BUKIT PANJANG
BLK 217A PETIR ROAD MSCP,21443.7871,39574.4888,MULTI-STOREY_CAR_PARK,ELECTRONIC_PARKING,WHOLE_DAY,SUN_&_PH_FR_7AM-10.30PM,1,5,1.9,0,591.0,1.3741714064009953,103.77440629700969,BUKIT PANJANG
BLK 547 SEGAR ROAD,20897.8022,41135.8221,MULTI-STOREY_CAR_PARK,ELECTRONIC_PARKING,WHOLE_DAY,SUN_&_PH_FR_7AM-10.30PM,1,9,2.15,0,421.0,1.3882914101394497,103.76949985573688,BUKIT PANJANG
BLK 548 SEGAR ROAD,20712.1138,41213.883,MULTI-STOREY_CAR_PARK,ELECTRONIC_PARKING,WHOLE_DAY,SUN_&_PH_FR_7AM-10.30PM,1,8,2.15,0,470.0,1.3889973185441589,103.76783128358848,BUKIT PANJANG
BLK 443 FAJAR ROAD,20985.8418,40364.4597,MULTI-STOREY_CAR_PARK,ELECTRONIC_PARKING,WHOLE_DAY,SUN_&_PH_FR_7AM-10.30PM,1,12,2.15,0,611.0,1.3813155105578694,103.77029114340563,BUKIT PANJANG
BLK 632 SENJA ROAD,19702.7354,40739.1965,MULTI-STOREY_CAR_PARK,ELECTRONIC_PARKING,NO,SUN_&_PH_FR_7AM-10.30PM,1,9,2.15,0,227.0,1.3847041571560248,103.75876137706072,BUKIT PANJANG
BLK 634 SENJA ROAD,19584.9139,40909.9744,MULTI-STOREY_CAR_PARK,ELECTRONIC_PARKING,WHOLE_DAY,SUN_&_PH_FR_7AM-10.30PM,1,10,2.15,0,434.0,1.3862485761850678,103.75770261335553,BUKIT PANJANG
BLK 636 SENJA ROAD,19616.1105,41031.7585,MULTI-STOREY_CAR_PARK,ELECTRONIC_PARKING,WHOLE_DAY,SUN_&_PH_FR_7AM-10.30PM,1,10,2.15,0,648.0,1.3873499559694598,103.75798290360146,BUKIT PANJANG
BLK 422A FAJAR ROAD,20950.1385,40814.0823,MULTI-STOREY_CAR_PARK,ELECTRONIC_PARKING,WHOLE_DAY,SUN_&_PH_FR_7AM-10.30PM,1,12,2.15,0,491.0,1.3853817252275453,103.76997021493034,BUKIT PANJANG
BLK 678 PERUMAL ROAD,30448.766,32767.6002,MULTI-STOREY_CAR_PARK,ELECTRONIC_PARKING,WHOLE_DAY,SUN_&_PH_FR_7AM-10.30PM,1,11,1.9,0,326.0,1.3126129574907244,103.85532195310934,KALLANG
BLK 6A BOON KENG ROAD,31121.6383,33283.2558,MULTI-STOREY_CAR_PARK,ELECTRONIC_PARKING,WHOLE_DAY,SUN_&_PH_FR_7AM-10.30PM,1,10,2.0,0,282.0,1.3172763032697552,103.86136809519948,KALLANG
BLK 10 BENDEMEER ROAD,31076.0824,33087.5529,MULTI-STOREY_CAR_PARK,ELECTRONIC_PARKING,WHOLE_DAY,NO,1,7,2.15,0,286.0,1.3155064401637513,103.86095873270126,KALLANG
BLK 257A BOON LAY DRIVE,14004.6897,36456.5691,MULTI-STOREY_CAR_PARK,ELECTRONIC_PARKING,WHOLE_DAY,SUN_&_PH_FR_7AM-10.30PM,1,10,1.9,0,390.0,1.3459715197541577,103.70756220303554,JURONG WEST
BLK 268 BOON LAY DRIVE,14024.5648,36666.6301,MULTI-STOREY_CAR_PARK,ELECTRONIC_PARKING,WHOLE_DAY,SUN_&_PH_FR_7AM-10.30PM,1,10,2.15,0,190.0,1.3478712414477692,103.70774069535459,JURONG WEST
BLK 208A BOON LAY PLACE,14768.3178,36520.4472,MULTI-STOREY_CAR_PARK,ELECTRONIC_PARKING,WHOLE_DAY,SUN_&_PH_FR_7AM-10.30PM,1,10,2.15,0,450.0,1.346549555712571,103.71442382780704,JURONG WEST
BLK 212A BOON LAY PLACE,14648.3419,36766.7841,MULTI-STOREY_CAR_PARK,ELECTRONIC_PARKING,WHOLE_DAY,SUN_&_PH_FR_7AM-10.30PM,1,10,2.15,0,430.0,1.3487772809984708,103.7133456635813,JURONG WEST
180 BOON LAY DRIVE,14072.9303,36691.7296,MULTI-STOREY_CAR_PARK,ELECTRONIC_PARKING,WHOLE_DAY,SUN_&_PH_FR_7AM-10.30PM,1,5,2.15,0,381.0,1.3480982543721107,103.70817527684159,JURONG WEST
183 BOON LAY AVENUE,14206.3144,36819.8339,MULTI-STOREY_CAR_PARK,ELECTRONIC_PARKING,WHOLE_DAY,SUN_&_PH_FR_7AM-10.30PM,1,10,2.15,0,300.0,1.3492568430818872,103.70937375465324,JURONG WEST
196 BOON LAY DR,14693.2928,36077.4814,MULTI-STOREY_CAR_PARK,ELECTRONIC_PARKING,WHOLE_DAY,SUN_&_PH_FR_7AM-10.30PM,1,12,2.15,0,358.0,1.3425435059718895,103.71374987824393,JURONG WEST
216 BOON LAY AVE,14451.8262,36853.4082,MULTI-STOREY_CAR_PARK,ELECTRONIC_PARKING,WHOLE_DAY,SUN_&_PH_FR_7AM-10.30PM,1,16,2.15,0,595.0,1.3495605885266677,103.71157981204752,JURONG WEST
BLK 126A BUKIT MERAH VIEW,26866.0055,29672.9702,MULTI-STOREY_CAR_PARK,ELECTRONIC_PARKING,WHOLE_DAY,SUN_&_PH_FR_7AM-10.30PM,1,11,1.9,0,543.0,1.2846262894692295,103.82312918959775,BUKIT MERAH
BLK 163 BUKIT MERAH CENTRAL,26194.9184,29563.3295,OTHERS,ELECTRONIC_PARKING,WHOLE_DAY,NO,1,1,2.0,1,266.0,1.2836347060925115,103.8170992125997,BUKIT MERAH
BLK 119 BUKIT MERAH CENTRAL,26136.5799,29432.235,MULTI-STOREY_CAR_PARK,ELECTRONIC_PARKING,WHOLE_DAY,SUN_&_PH_FR_7AM-10.30PM,1,10,1.9,0,266.0,1.2824491300655365,103.81657502600716,BUKIT MERAH
BLKS 167-169 JALAN BUKIT MERAH,26367.6248,29465.267,MULTI-STOREY_CAR_PARK,ELECTRONIC_PARKING,WHOLE_DAY,NO,1,14,1.9,0,360.0,1.282747872709334,103.81865105241602,BUKIT MERAH
BLK 35A JALAN RUMAH TINGGI,25288.5551,30009.2384,MULTI-STOREY_CAR_PARK,ELECTRONIC_PARKING,WHOLE_DAY,SUN_&_PH_FR_7AM-10.30PM,1,0,2.15,0,330.0,1.287667284248731,103.80895514474003,BUKIT MERAH
BLK 665 BUFFALO ROAD BASEMENT CAR PARK,29921.7021,32043.75,OTHERS,ELECTRONIC_PARKING,WHOLE_DAY,NO,1,1,1.8,1,148.0,1.306066749235348,103.85058597863153,ROCHOR
BLK 39 BENDEMEER ROAD,31656.358,33667.0566,MULTI-STOREY_CAR_PARK,ELECTRONIC_PARKING,WHOLE_DAY,SUN_&_PH_FR_7AM-10.30PM,1,4,2.15,0,415.0,1.3207472024589295,103.86617287009032,KALLANG
BLK 112A WHAMPOA ROAD,30605.3384,34301.5549,MULTI-STOREY_CAR_PARK,ELECTRONIC_PARKING,WHOLE_DAY,SUN_&_PH_FR_7AM-10.30PM,1,11,2.0,0,253.0,1.3264854877042713,103.85672896311394,NOVENA
BLK 32A JALAN BAHAGIA,30711.6128,34245.0049,MULTI-STOREY_CAR_PARK,ELECTRONIC_PARKING,WHOLE_DAY,SUN_&_PH_FR_7AM-10.30PM,1,12,2.0,0,253.0,1.3259740602921022,103.85768389140578,NOVENA
BLK 98A WHAMPOA DRIVE,30374.6768,33753.3566,MULTI-STOREY_CAR_PARK,ELECTRONIC_PARKING,WHOLE_DAY,SUN_&_PH_FR_7AM-10.30PM,1,7,2.0,0,285.0,1.3215277953752567,103.85465630079332,NOVENA
BLK 85A WHAMPOA DRIVE,30532.4552,33886.3275,MULTI-STOREY_CAR_PARK,ELECTRONIC_PARKING,WHOLE_DAY,SUN_&_PH_FR_7AM-10.30PM,1,2,2.1,0,285.0,1.322730324429887,103.85607403368216,NOVENA
BLK 19A JALAN TENTERAM,30912.1514,34418.5838,MULTI-STOREY_CAR_PARK,ELECTRONIC_PARKING,WHOLE_DAY,SUN_&_PH_FR_7AM-10.30PM,1,13,2.0,0,334.0,1.3275438277706244,103.85948585590164,NOVENA
BLK 116 JALAN TENTERAM,31102.1822,34445.0449,MULTI-STOREY_CAR_PARK,ELECTRONIC_PARKING,WHOLE_DAY,SUN_&_PH_FR_7AM-10.30PM,1,6,2.15,0,376.0,1.3277831137966807,103.86119338936635,NOVENA
BLK 78A LORONG LIMAU,30457.6666,34068.0647,MULTI-STOREY_CAR_PARK,ELECTRONIC_PARKING,WHOLE_DAY,NO,1,12,2.15,0,306.0,1.3243738973722423,103.85540203296432,NOVENA
BLK 2B BOON TIONG ROAD,27996.7913,29911.548,MULTI-STOREY_CAR_PARK,ELECTRONIC_PARKING,WHOLE_DAY,SUN_&_PH_FR_7AM-10.30PM,1,12,2.15,0,356.0,1.2867839238665024,103.8332897478358,BUKIT MERAH
BLK 8C BOON TIONG RD,27590.7177,29931.3587,MULTI-STOREY_CAR_PARK,ELECTRONIC_PARKING,WHOLE_DAY,SUN_&_PH_FR_7AM-10.30PM,1,12,2.15,0,494.0,1.28696308219404,103.82964101237162,BUKIT MERAH
BLK 11A BOON TIONG ROAD,27485.7966,29859.2793,MULTI-STOREY_CAR_PARK,ELECTRONIC_PARKING,WHOLE_DAY,NO,1,10,2.15,0,430.0,1.2863112198549262,103.82869825504955,BUKIT MERAH
BLK 129A BUKIT MERAH VIEW,26893.4354,29547.635,MULTI-STOREY_CAR_PARK,ELECTRONIC_PARKING,WHOLE_DAY,SUN_&_PH_FR_7AM-10.30PM,1,10,2.15,0,456.0,1.2834928028879091,103.8233756624967,BUKIT MERAH
BLK 2A JLN BUKIT MERAH,25037.7298,29927.4975,MULTI-STOREY_CAR_PARK,ELECTRONIC_PARKING,WHOLE_DAY,NO,1,7,2.15,0,330.0,1.2869280256342526,103.80670138529204,BUKIT MERAH
BLK 431 BEDOK NORTH ROAD,39040.5507,34603.0432,MULTI-STOREY_CAR_PARK,ELECTRONIC_PARKING,WHOLE_DAY,NO,1,8,2.15,0,313.0,1.329210147888524,103.93252399987328,invalid
BLK 187 BEDOK NORTH ST 4,39944.1477,34766.4678,MULTI-STOREY_CAR_PARK,ELECTRONIC_PARKING,WHOLE_DAY,NO,1,8,2.15,0,854.0,1.3306877578836154,103.9406433705684,BEDOK
BLK 547C BEDOK NORTH AVENUE 1,38287.6513,34686.6961,OTHERS,ELECTRONIC_PARKING,WHOLE_DAY,NO,1,1,2.8,1,309.0,1.3299669382159474,103.92575881889982,invalid
BLK 208A NEW UPPER CHANGI ROAD,38858.3585,34156.6609,MULTI-STOREY_CAR_PARK,ELECTRONIC_PARKING,WHOLE_DAY,NO,1,8,2.15,0,515.0,1.3251732958769233,103.93088674617249,invalid
BLK 154 BEDOK SOUTH ROAD,40577.3467,33351.3208,MULTI-STOREY_CAR_PARK,ELECTRONIC_PARKING,WHOLE_DAY,NO,1,7,2.15,0,340.0,1.3178894383908382,103.9463324279342,invalid
BLK 637A BEDOK RESERVOIR ROAD,35903.9044,34750.8852,MULTI-STOREY_CAR_PARK,ELECTRONIC_PARKING,WHOLE_DAY,SUN_&_PH_FR_7AM-10.30PM,1,12,1.9,0,584.0,1.33054815487274,103.90433956320607,BEDOK
BLK 649A JALAN TENAGA,36132.6219,34913.1736,MULTI-STOREY_CAR_PARK,ELECTRONIC_PARKING,WHOLE_DAY,SUN_&_PH_FR_7AM-10.30PM,1,6,1.9,0,310.0,1.332015772086145,103.90639475945399,invalid
BLK 10A BEDOK SOUTH AVENUE 2,39530.0381,33861.6257,MULTI-STOREY_CAR_PARK,COUPON_PARKING,WHOLE_DAY,SUN_&_PH_FR_7AM-10.30PM,1,10,1.9,0,452.0,1.3225048596873967,103.93692202997929,invalid
BLK 94A BEDOK NORTH AVENUE 4,40091.8567,35069.2759,MULTI-STOREY_CAR_PARK,ELECTRONIC_PARKING,WHOLE_DAY,SUN_&_PH_FR_7AM-10.30PM,1,10,1.9,0,370.0,1.3334261836375532,103.9419707361937,invalid
BLK 29C CHAI CHEE AVENUE,38125.3637,34059.3926,MULTI-STOREY_CAR_PARK,ELECTRONIC_PARKING,WHOLE_DAY,SUN_&_PH_FR_7AM-10.30PM,1,10,2.0,0,248.0,1.3242938891077893,103.9243003689824,invalid
BLK 660A JALAN TENAGA,36243.3489,35174.2762,MULTI-STOREY_CAR_PARK,ELECTRONIC_PARKING,WHOLE_DAY,SUN_&_PH_FR_7AM-10.30PM,1,10,2.0,0,379.0,1.3343770595975362,103.90738977380713,invalid
BLK 651A JALAN TENAGA,36196.3322,34965.864,MULTI-STOREY_CAR_PARK,ELECTRONIC_PARKING,WHOLE_DAY,SUN_&_PH_FR_7AM-10.30PM,1,9,2.0,0,378.0,1.332492267852263,103.90696724615174,invalid
BLK 671A JALAN DAMAI,36428.7057,35005.0793,MULTI-STOREY_CAR_PARK,ELECTRONIC_PARKING,WHOLE_DAY,SUN_&_PH_FR_7AM-10.30PM,1,8,2.0,0,365.0,1.3328468531231128,103.90905526271878,invalid
BLK 613C BEDOK RESERVOIR ROAD,37379.8318,35029.8453,MULTI-STOREY_CAR_PARK,ELECTRONIC_PARKING,WHOLE_DAY,SUN_&_PH_FR_7AM-10.30PM,1,12,2.15,0,327.0,1.33307054846192,103.91760166991952,BEDOK
BLK 761A BEDOK RESERVOIR VIEW,39251.41,35342.7343,MULTI-STOREY_CAR_PARK,ELECTRONIC_PARKING,WHOLE_DAY,SUN_&_PH_FR_7AM-10.30PM,1,9,2.15,0,314.0,1.3358995643003435,103.9344189574038,invalid
BLK 765A BEDOK RESERVOIR VIEW,39464.4992,35319.6825,MULTI-STOREY_CAR_PARK,ELECTRONIC_PARKING,WHOLE_DAY,SUN_&_PH_FR_7AM-10.30PM,1,9,2.15,0,397.0,1.3356910123179635,103.93633367546337,BEDOK
BLK 769A BEDOK RESERVOIR VIEW,39692.6527,35310.6109,MULTI-STOREY_CAR_PARK,ELECTRONIC_PARKING,WHOLE_DAY,SUN_&_PH_FR_7AM-10.30PM,1,9,2.15,0,397.0,1.3356088847994054,103.93838375965704,invalid
BLK 772A BEDOK RESERVOIR VIEW,39583.9006,35439.6773,MULTI-STOREY_CAR_PARK,ELECTRONIC_PARKING,WHOLE_DAY,SUN_&_PH_FR_7AM-10.30PM,1,12,2.15,0,397.0,1.3367761554500215,103.93740660996897,invalid
BLK 739A BEDOK RESERVOIR ROAD,38020.7204,35604.61,MULTI-STOREY_CAR_PARK,ELECTRONIC_PARKING,WHOLE_DAY,SUN_&_PH_FR_7AM-10.30PM,1,6,2.15,0,292.0,1.3382683050605575,103.92336060080387,BEDOK
BLK 30A NEW UPPER CHANGI ROAD,39309.7384,33939.7118,MULTI-STOREY_CAR_PARK,ELECTRONIC_PARKING,WHOLE_DAY,SUN_&_PH_FR_7AM-10.30PM,1,11,2.15,0,622.0,1.3232111239847677,103.93494255225349,invalid
BLK 21A CHAI CHEE ROAD,37899.5392,34299.8988,MULTI-STOREY_CAR_PARK,ELECTRONIC_PARKING,WHOLE_DAY,SUN_&_PH_FR_7AM-10.30PM,1,12,2.15,0,212.0,1.3264690135495145,103.92227129473213,BEDOK
BLK 215A BEDOK CENTRAL,39227.6155,34273.0906,MULTI-STOREY_CAR_PARK,ELECTRONIC_PARKING,WHOLE_DAY,NO,1,12,2.15,0,551.0,1.32622610951431,103.93420475731571,invalid
BLK 184 BEDOK NORTH RD,40023.6834,34256.9953,MULTI-STOREY_CAR_PARK,ELECTRONIC_PARKING,WHOLE_DAY,SUN_&_PH_FR_7AM-10.30PM,1,6,2.15,0,559.0,1.3260802458197953,103.9413578420037,invalid
BLK 114A BEDOK NORTH ST 2,39379.4586,34770.0381,MULTI-STOREY_CAR_PARK,ELECTRONIC_PARKING,WHOLE_DAY,SUN_&_PH_FR_7AM-10.30PM,1,4,2.15,0,160.0,1.3307202632277364,103.9355693327068,BEDOK
BLK 13A BEDOK SOUTH RD,39449.3971,33644.4324,MULTI-STOREY_CAR_PARK,COUPON_PARKING,WHOLE_DAY,SUN_&_PH_FR_7AM-10.30PM,1,4,2.15,0,258.0,1.3205406737790832,103.93619734820163,BEDOK
BLK 34A BED0K SOUTH AVE 2,39683.2391,33835.9985,MULTI-STOREY_CAR_PARK,ELECTRONIC_PARKING,WHOLE_DAY,SUN_&_PH_FR_7AM-10.30PM,1,2,2.15,0,250.0,1.3222730385459662,103.93829861018826,invalid
BLK 116A BEDOK NORTH ROAD,39568.2194,34796.4641,MULTI-STOREY_CAR_PARK,ELECTRONIC_PARKING,WHOLE_DAY,SUN_&_PH_FR_7AM-10.30PM,1,7,2.15,0,287.0,1.3309591788891948,103.93726546144438,invalid
BLK 35A BEDOK SOUTH AVE 2,39831.9791,33865.2621,MULTI-STOREY_CAR_PARK,ELECTRONIC_PARKING,WHOLE_DAY,SUN_&_PH_FR_7AM-10.30PM,1,2,2.15,0,180.0,1.3225376305100722,103.93963512682517,BEDOK
BLK 630 BEDOK RESERVOIR ROAD,37007.0862,34999.621,OTHERS,ELECTRONIC_PARKING,WHOLE_DAY,NO,1,1,2.15,1,51.0,1.3327973239279605,103.91425233336784,invalid
BLK 2A BEDOK SOUTH AVE 1,39197.6251,33772.3265,MULTI-STOREY_CAR_PARK,ELECTRONIC_PARKING,WHOLE_DAY,SUN_&_PH_FR_7AM-10.30PM,1,6,2.15,0,757.0,1.3216973941844892,103.93393509513587,BEDOK
BLK 19A BEDOK SOUTH ROAD,39224.3984,33631.2777,MULTI-STOREY_CAR_PARK,ELECTRONIC_PARKING,WHOLE_DAY,SUN_&_PH_FR_7AM-10.30PM,1,8,2.15,0,430.0,1.320421790868974,103.93417561555712,invalid
BLK 513A BEDOK NORTH AVE 2,38688.1313,34940.2851,MULTI-STOREY_CAR_PARK,ELECTRONIC_PARKING,WHOLE_DAY,SUN_&_PH_FR_7AM-10.30PM,1,7,2.15,0,438.0,1.3322601658153155,103.92935743869764,invalid
BLK 220 BEDOK CENTRAL,39325.3283,34194.2403,MULTI-STOREY_CAR_PARK,ELECTRONIC_PARKING,WHOLE_DAY,NO,1,13,2.15,0,329.0,1.3255129802698544,103.9350827294628,invalid
BLK 219 BEDOK CENTRAL,39088.1581,34133.7804,MULTI-STOREY_CAR_PARK,ELECTRONIC_PARKING,WHOLE_DAY,NO,1,11,2.15,0,515.0,1.3249662903465638,103.93295160832379,invalid
BLK 714A BEDOK RESERVOIR ROAD,38037.1417,35371.0192,MULTI-STOREY_CAR_PARK,ELECTRONIC_PARKING,WHOLE_DAY,SUN_&_PH_FR_7AM-10.30PM,1,6,2.15,0,325.0,1.3361557898964023,103.92350807855593,BEDOK
BLK 748 BEDOK RESERVOIR CRESCENT,37860.0561,35362.5681,MULTI-STOREY_CAR_PARK,ELECTRONIC_PARKING,WHOLE_DAY,NO,1,7,2.15,0,308.0,1.3360794194920385,103.92191686099008,invalid
BLK 807 CHAI CHEE ROAD,37954.0727,34412.5835,MULTI-STOREY_CAR_PARK,ELECTRONIC_PARKING,WHOLE_DAY,NO,1,5,2.15,0,510.0,1.3274880750733322,103.9227613439326,BEDOK
BLK 88 TANGLIN HALT RD,24092.2494,31574.3039,MULTI-STOREY_CAR_PARK,ELECTRONIC_PARKING,WHOLE_DAY,SUN_&_PH_FR_7AM-10.30PM,1,5,2.15,0,466.0,1.3018210574313116,103.79820565809393,invalid
309 CHOA CHU KANG AVE 4,18254.4236,40780.2921,OTHERS,ELECTRONIC_PARKING,WHOLE_DAY,NO,1,1,2.1,1,315.0,1.3850753626994696,103.74574719528964,invalid
BLK 84A COMMONWEALTH CLOSE,24269.3904,31777.7395,MULTI-STOREY_CAR_PARK,COUPON_PARKING,WHOLE_DAY,SUN_&_PH_FR_7AM-10.30PM,1,10,2.15,0,466.0,1.3036608788452495,103.7997973262448,invalid
BLK 11 CHAI CHEE ROAD,38194.9297,34332.7592,OTHERS,ELECTRONIC_PARKING,WHOLE_DAY,SUN_&_PH_FR_7AM-10.30PM,1,2,2.15,1,134.0,1.3267660935698462,103.9249255468732,invalid
BLK 54 C'WEALTH DR,23934.8536,31553.8887,MULTI-STOREY_CAR_PARK,ELECTRONIC_PARKING,WHOLE_DAY,SUN_&_PH_FR_7AM-10.30PM,1,11,2.15,0,466.0,1.3016364093624113,103.79679138790385,invalid
BLK 429A CHOA CHU KANG AVENUE 4,17706.6149,40616.7716,MULTI-STOREY_CAR_PARK,ELECTRONIC_PARKING,WHOLE_DAY,SUN_&_PH_FR_7AM-10.30PM,1,10,2.0,0,350.0,1.3835963556122934,103.74082478082065,invalid
BLK 625A CHOA CHU KANG STREET 62,18365.515,42251.984,MULTI-STOREY_CAR_PARK,ELECTRONIC_PARKING,WHOLE_DAY,NO,1,11,2.15,0,301.0,1.3983848378100412,103.74674494947023,invalid
BLK 445A CHOA CHU KANG AVE 4,17241.061,40350.4217,MULTI-STOREY_CAR_PARK,ELECTRONIC_PARKING,WHOLE_DAY,SUN_&_PH_FR_7AM-10.30PM,1,10,2.15,0,350.0,1.381187418093136,103.73664153064173,invalid
BLK 474A CHOA CHU KANG AVE 3,17384.4024,40068.5078,MULTI-STOREY_CAR_PARK,ELECTRONIC_PARKING,WHOLE_DAY,SUN_&_PH_FR_7AM-10.30PM,1,12,2.15,0,326.0,1.3786379456153655,103.73792965982501,CHOA CHU KANG
BLK 450A CHOA CHU KANG AVE 4,17135.7982,40142.8636,MULTI-STOREY_CAR_PARK,ELECTRONIC_PARKING,WHOLE_DAY,SUN_&_PH_FR_7AM-10.30PM,1,11,2.15,0,350.0,1.3793103007570013,103.73569574377184,invalid
BLK 462A CHOA CHU KANG AVE 4,17141.5616,39946.6052,MULTI-STOREY_CAR_PARK,ELECTRONIC_PARKING,WHOLE_DAY,SUN_&_PH_FR_7AM-10.30PM,1,10,2.15,0,338.0,1.37753541473403,103.73574760435896,CHOA CHU KANG
BLK 483A CHOA CHU KANG AVE 5,17288.8253,39773.897,MULTI-STOREY_CAR_PARK,ELECTRONIC_PARKING,WHOLE_DAY,SUN_&_PH_FR_7AM-10.30PM,1,12,2.15,0,298.0,1.3759735599231606,103.73707093730049,invalid
BLK 486A CHOA CHU KANG AVE 5,17432.5108,39671.7658,MULTI-STOREY_CAR_PARK,ELECTRONIC_PARKING,WHOLE_DAY,SUN_&_PH_FR_7AM-10.30PM,1,12,2.15,0,535.0,1.3750499752188077,103.73836209062019,invalid
BLK 297B CHOA CHU KANG AVE 2,17981.6699,39927.7497,MULTI-STOREY_CAR_PARK,ELECTRONIC_PARKING,WHOLE_DAY,SUN_&_PH_FR_7AM-10.30PM,1,9,2.15,0,303.0,1.377365191602342,103.74329658894608,invalid
BLK 227A CHOA CHU KANG CENTRAL,18219.6466,40274.898,MULTI-STOREY_CAR_PARK,ELECTRONIC_PARKING,WHOLE_DAY,SUN_&_PH_FR_7AM-10.30PM,1,10,2.0,0,326.0,1.3805047532205248,103.74543486598357,CHOA CHU KANG
BLK 287A CHOA CHU KANG AVENUE 2,17822.7967,40079.0923,MULTI-STOREY_CAR_PARK,ELECTRONIC_PARKING,WHOLE_DAY,SUN_&_PH_FR_7AM-10.30PM,1,12,2.0,0,326.0,1.3787338234756623,103.74186894657916,CHOA CHU KANG
BLK 343A CHOA CHU KANG LOOP,18276.2056,40644.1197,MULTI-STOREY_CAR_PARK,ELECTRONIC_PARKING,WHOLE_DAY,NO,1,11,1.9,0,315.0,1.3838438770093517,103.74594296799225,invalid
BLK 276A CHOA CHU KANG AVENUE 2,18079.0694,40228.4669,MULTI-STOREY_CAR_PARK,ELECTRONIC_PARKING,WHOLE_DAY,SUN_&_PH_FR_7AM-10.30PM,1,10,2.0,0,326.0,1.3800848001567996,103.74417169247384,invalid
BLK 118A TECK WHYE LANE,18725.4974,40162.9532,MULTI-STOREY_CAR_PARK,ELECTRONIC_PARKING,WHOLE_DAY,SUN_&_PH_FR_7AM-10.30PM,1,12,2.15,0,334.0,1.3794925303032597,103.74998034167601,CHOA CHU KANG
BLK 251A CHOA CHU KANG AVENUE 2,18164.3898,40080.8939,MULTI-STOREY_CAR_PARK,ELECTRONIC_PARKING,WHOLE_DAY,SUN_&_PH_FR_7AM-10.30PM,1,9,2.0,0,303.0,1.3787502331490429,103.74493840789525,invalid
BLK 253A CHOA CHU KANG AVE 1,18055.7989,39931.0181,MULTI-STOREY_CAR_PARK,ELECTRONIC_PARKING,WHOLE_DAY,SUN_&_PH_FR_7AM-10.30PM,1,5,2.0,0,303.0,1.3773947750358428,103.74396269033357,invalid
BLK 502A CHOA CHU KANG STREET 51,17943.2973,41180.8424,MULTI-STOREY_CAR_PARK,ELECTRONIC_PARKING,WHOLE_DAY,SUN_&_PH_FR_7AM-10.30PM,1,7,1.9,0,236.0,1.388697685879254,103.74295135477603,invalid
BLK 511A CHOA CHU KANG STREET 51,17736.9363,41167.5327,MULTI-STOREY_CAR_PARK,ELECTRONIC_PARKING,WHOLE_DAY,SUN_&_PH_FR_7AM-10.30PM,1,9,2.0,0,324.0,1.3885772458034669,103.74109704842282,CHOA CHU KANG
BLK 513A CHOA CHU KANG STREET 51,17881.6424,41361.0029,MULTI-STOREY_CAR_PARK,ELECTRONIC_PARKING,WHOLE_DAY,SUN_&_PH_FR_7AM-10.30PM,1,10,2.0,0,350.0,1.3903269693827938,103.74239727614717,invalid
BLK 527A CHOA CHU KANG STREET 51,17735.8704,41577.6177,MULTI-STOREY_CAR_PARK,ELECTRONIC_PARKING,WHOLE_DAY,SUN_&_PH_FR_7AM-10.30PM,1,9,1.9,0,407.0,1.3922859022308816,103.74108732653997,invalid
BLK 552A CHOA CHU KANG STREET 52,17863.0257,41773.0092,MULTI-STOREY_CAR_PARK,ELECTRONIC_PARKING,WHOLE_DAY,SUN_&_PH_FR_7AM-10.30PM,1,10,1.9,0,325.0,1.3940529952860854,103.7422298477562,invalid
BLK 541A CHOA CHU KANG STREET 52,18148.0534,41666.0012,MULTI-STOREY_CAR_PARK,ELECTRONIC_PARKING,WHOLE_DAY,SUN_&_PH_FR_7AM-10.30PM,1,10,1.9,0,351.0,1.3930853528194667,103.74479108110928,invalid
BLK 559A CHOA CHU KANG NORTH 6,18090.945,42004.5732,MULTI-STOREY_CAR_PARK,ELECTRONIC_PARKING,7AM-10.30PM,SUN_&_PH_FR_7AM-10.30PM,0,11,2.0,0,304.0,1.3961472532491073,103.74427780249434,CHOA CHU KANG
BLK 567A CHOA CHU KANG STREET 52,18298.9982,41919.8106,MULTI-STOREY_CAR_PARK,ELECTRONIC_PARKING,WHOLE_DAY,SUN_&_PH_FR_7AM-10.30PM,1,11,1.9,0,329.0,1.395380762135428,103.74614735348564,CHOA CHU KANG
BLK 708A CHOA CHU KANG STREET 53,18333.4408,41430.698,MULTI-STOREY_CAR_PARK,ELECTRONIC_PARKING,WHOLE_DAY,SUN_&_PH_FR_7AM-10.30PM,1,11,2.0,0,432.0,1.3909574199697599,103.74645700945592,CHOA CHU KANG
BLK 754A CHOA CHU KANG NORTH 5,18363.8684,41631.0171,MULTI-STOREY_CAR_PARK,ELECTRONIC_PARKING,WHOLE_DAY,SUN_&_PH_FR_7AM-10.30PM,1,11,1.95,0,336.0,1.3927690420626113,103.7467303588618,invalid
BLK 762A CHOA CHU KANG NTH 5,18631.6662,41611.081,MULTI-STOREY_CAR_PARK,ELECTRONIC_PARKING,WHOLE_DAY,SUN_&_PH_FR_7AM-10.30PM,1,10,2.0,0,335.0,1.3925888350648057,103.7491367373063,invalid
BLK 771A CHOA CHU KANG ST 54,18724.0529,41824.3887,MULTI-STOREY_CAR_PARK,ELECTRONIC_PARKING,WHOLE_DAY,SUN_&_PH_FR_7AM-10.30PM,1,10,2.0,0,373.0,1.394517940974819,103.74996683599052,CHOA CHU KANG
BLK 792A CHOA CHU KANG NTH 6,18675.6762,41907.1414,MULTI-STOREY_CAR_PARK,ELECTRONIC_PARKING,WHOLE_DAY,SUN_&_PH_FR_7AM-10.30PM,1,10,2.0,0,350.0,1.395266310343541,103.74953210680319,invalid
BLK 787A CHOA CHU KANG DRIVE,18471.7225,41904.1787,MULTI-STOREY_CAR_PARK,ELECTRONIC_PARKING,WHOLE_DAY,SUN_&_PH_FR_7AM-10.30PM,1,10,2.0,0,400.0,1.3952394503711885,103.74769942278269,invalid
BLK 604A CHOA CHU KANG ST 62,18189.9873,42143.3391,MULTI-STOREY_CAR_PARK,ELECTRONIC_PARKING,WHOLE_DAY,SUN_&_PH_FR_7AM-10.30PM,1,10,2.0,0,344.0,1.3974022344611845,103.74516772920894,CHOA CHU KANG
BLK 610A CHOA CHU KANG ST 62,18006.9629,42295.9806,MULTI-STOREY_CAR_PARK,ELECTRONIC_PARKING,WHOLE_DAY,SUN_&_PH_FR_7AM-10.30PM,1,9,2.0,0,374.0,1.3987826049446004,103.74352305674668,invalid
BLK 611A CHOA CHU KANG ST 62,18031.8277,42477.9839,MULTI-STOREY_CAR_PARK,ELECTRONIC_PARKING,WHOLE_DAY,SUN_&_PH_FR_7AM-10.30PM,1,9,2.0,0,371.0,1.4004285839443864,103.74374642444515,invalid
BLK 621A CHOA CHU KANG NORTH 7,18459.6171,42391.2166,MULTI-STOREY_CAR_PARK,ELECTRONIC_PARKING,WHOLE_DAY,NO,1,10,2.0,0,315.0,1.3996440372231296,103.74759048649082,invalid
BLK 659A/660A/661A CHOA CHU KANG CRESCENT,18754.0711,42503.4389,MULTI-STOREY_CAR_PARK,ELECTRONIC_PARKING,WHOLE_DAY,SUN_&_PH_FR_7AM-10.30PM,1,6,2.15,0,684.0,1.400659030128732,103.75023635729681,invalid
BLK 668A CHOA CHU KANG CRESCENT,18748.505,42602.4434,MULTI-STOREY_CAR_PARK,ELECTRONIC_PARKING,WHOLE_DAY,SUN_&_PH_FR_7AM-10.30PM,1,12,2.15,0,565.0,1.4015543884980117,103.75018630981081,invalid
BLK 638-643 CHOA CHU KANG STREET 64,18629.4583,42224.5521,OTHERS,ELECTRONIC_PARKING,WHOLE_DAY,SUN_&_PH_FR_7AM-10.30PM,1,2,2.15,1,618.0,1.3981368406612198,103.74911670029505,invalid
BLK 631-637 & 636A CHOA CHU KANG NORTH 6,18561.8248,42111.2701,OTHERS,ELECTRONIC_PARKING,7AM-10.30PM,SUN_&_PH_FR_7AM-10.30PM,0,0,2.15,0,397.0,1.3971123380650974,103.74850899592623,CHOA CHU KANG
BLK 675A CHOA CHU KANG CRESCENT,18357.265,42562.8339,MULTI-STOREY_CAR_PARK,ELECTRONIC_PARKING,WHOLE_DAY,SUN_&_PH_FR_7AM-10.30PM,1,9,2.0,0,465.0,1.4011960465890232,103.7466707134057,CHOA CHU KANG
BLK 669A CHOA CHU KANG CRESCENT,18541.2289,42678.1909,MULTI-STOREY_CAR_PARK,ELECTRONIC_PARKING,WHOLE_DAY,SUN_&_PH_FR_7AM-10.30PM,1,10,2.0,0,460.0,1.4022393536094306,103.74832374074036,invalid
BLK 678A CHOA CHU KANG CRESCENT,18157.8829,42638.4707,MULTI-STOREY_CAR_PARK,ELECTRONIC_PARKING,WHOLE_DAY,SUN_&_PH_FR_7AM-10.30PM,1,13,2.15,0,875.0,1.4018800104107763,103.74487907782583,invalid
BLK 297A CHOA CHU KANG AVE 2,17841.6171,39866.5767,MULTI-STOREY_CAR_PARK,ELECTRONIC_PARKING,WHOLE_DAY,SUN_&_PH_FR_7AM-10.30PM,1,11,2.15,0,535.0,1.3768119174004938,103.74203813468691,invalid
BLK 146A 146A TECK WHYE AVENUE,19076.7918,40333.5431,MULTI-STOREY_CAR_PARK,ELECTRONIC_PARKING,WHOLE_DAY,NO,1,5,2.15,0,230.0,1.3810353919401894,103.75313692680994,invalid
BLK 683 CHOA CHU KANG CRESCENT,18268.595,42905.4416,MULTI-STOREY_CAR_PARK,ELECTRONIC_PARKING,WHOLE_DAY,SUN_&_PH_FR_7AM-10.30PM,1,12,2.15,0,535.0,1.4042944339787446,103.74587382647135,invalid
BLK 686 CHOA CHU KANG CRESCENT,18607.321,42882.7597,MULTI-STOREY_CAR_PARK,ELECTRONIC_PARKING,WHOLE_DAY,SUN_&_PH_FR_7AM-10.30PM,1,13,2.15,0,597.0,1.40408941986099,103.7489175658637,invalid
BLK 687 CHOA CHU KANG DRIVE,18715.5324,42855.1194,MULTI-STOREY_CAR_PARK,ELECTRONIC_PARKING,WHOLE_DAY,SUN_&_PH_FR_7AM-10.30PM,1,12,2.15,0,650.0,1.403839486324841,103.74988994322811,invalid
BLK 689 CHOA CHU KANG CRESCENT,18826.1888,42747.1959,MULTI-STOREY_CAR_PARK,ELECTRONIC_PARKING,WHOLE_DAY,SUN_&_PH_FR_7AM-10.30PM,1,12,2.15,0,565.0,1.4028635015212756,103.75088431616422,CHOA CHU KANG
BLK 692 CHOA CHU KANG CRESCENT,18872.7705,42404.3378,MULTI-STOREY_CAR_PARK,ELECTRONIC_PARKING,WHOLE_DAY,SUN_&_PH_FR_7AM-10.30PM,1,13,2.15,0,715.0,1.3997628341389776,103.75130299875013,CHOA CHU KANG
BLK 573A CHOA CHU KANG STREET 52,18230.9826,41763.9633,MULTI-STOREY_CAR_PARK,ELECTRONIC_PARKING,7AM-10.30PM,NO,0,4,2.15,0,164.0,1.3939713139005383,103.74553623187555,invalid
BLK 135A TECK WHYE LANE,18945.8673,40250.2699,MULTI-STOREY_CAR_PARK,ELECTRONIC_PARKING,WHOLE_DAY,SUN_&_PH_FR_7AM-10.30PM,1,10,1.8,0,387.0,1.3802822594561714,103.7519604993514,invalid
BLK 476 CHOA CHU KANG AVE 5,17408.5254,39880.0108,MULTI-STOREY_CAR_PARK,ELECTRONIC_PARKING,NO,NO,1,8,2.15,0,298.0,1.3769332572770216,103.73814649010535,invalid
BLK 488 CHOA CHU KANG AVE 5,17467.9916,39852.8673,MULTI-STOREY_CAR_PARK,ELECTRONIC_PARKING,WHOLE_DAY,SUN_&_PH_FR_7AM-10.30PM,1,7,2.15,0,298.0,1.3766878029172795,103.73868084627503,invalid
BLK 489 CHOA CHU KANG AVE 5,17718.345,39728.0193,MULTI-STOREY_CAR_PARK,ELECTRONIC_PARKING,WHOLE_DAY,SUN_&_PH_FR_7AM-10.30PM,1,16,2.15,0,535.0,1.3755588125241671,103.74093049457312,CHOA CHU KANG
BLK 801 KEAT HONG CLOSE,17994.5933,39697.5018,MULTI-STOREY_CAR_PARK,ELECTRONIC_PARKING,WHOLE_DAY,SUN_&_PH_FR_7AM-10.30PM,1,14,2.15,0,535.0,1.375282918929695,103.74341279299837,CHOA CHU KANG
BLK 805 KEAT HONG CLOSE,17975.1882,39477.9306,MULTI-STOREY_CAR_PARK,ELECTRONIC_PARKING,WHOLE_DAY,SUN_&_PH_FR_7AM-10.30PM,1,6,2.15,0,558.0,1.3732971913409113,103.74323849875061,invalid
BLK 809 CHOA CHU KANG AVENUE 1,18119.3938,39664.2718,MULTI-STOREY_CAR_PARK,ELECTRONIC_PARKING,WHOLE_DAY,SUN_&_PH_FR_7AM-10.30PM,1,11,2.15,0,535.0,1.3749824413018554,103.74453422557643,invalid
BLK 810 CHOA CHU KANG AVE 7,18305.5202,39560.1044,MULTI-STOREY_CAR_PARK,ELECTRONIC_PARKING,WHOLE_DAY,SUN_&_PH_FR_7AM-10.30PM,1,7,2.15,0,488.0,1.3740404516807108,103.74620673798105,invalid
BLK 815 CHOA CHU KANG AVE 7,18361.9468,39838.3954,MULTI-STOREY_CAR_PARK,ELECTRONIC_PARKING,WHOLE_DAY,SUN_&_PH_FR_7AM-10.30PM,1,6,2.15,0,535.0,1.3765572316417782,103.74671368024912,invalid
817 KEAT HONG LINK,18660.8389,39885.9891,MULTI-STOREY_CAR_PARK,ELECTRONIC_PARKING,WHOLE_DAY,SUN_&_PH_FR_7AM-10.30PM,1,7,2.15,0,555.0,1.3769877482261235,103.74939942553638,invalid
BLK 203A CHOA CHU KANG AVE 1/CENTRAL,18614.0227,40353.8181,MULTI-STOREY_CAR_PARK,ELECTRONIC_PARKING,WHOLE_DAY,SUN_&_PH_FR_7AM-10.30PM,1,12,2.15,0,312.0,1.3812186067394712,103.74897859928703,invalid
BLK 129A CLARENCE LANE,25894.5957,30541.7316,MULTI-STOREY_CAR_PARK,ELECTRONIC_PARKING,WHOLE_DAY,SUN_&_PH_FR_7AM-10.30PM,1,10,2.0,0,275.0,1.2924830119920758,103.81440063004618,QUEENSTOWN
312 CLEMENTI AVE 4,20283.9283,33479.407,MULTI-STOREY_CAR_PARK,ELECTRONIC_PARKING,WHOLE_DAY,SUN_&_PH_FR_7AM-10.30PM,1,13,2.15,0,250.0,1.3190494117927232,103.76398569522,invalid
BLK 311 CLEMENTI AVE 4,20411.5945,33513.7467,MULTI-STOREY_CAR_PARK,ELECTRONIC_PARKING,WHOLE_DAY,SUN_&_PH_FR_7AM-10.30PM,1,13,2.1,0,250.0,1.3193599995859138,103.7651328328665,invalid
BLK 10 CANTONMENT CLOSE,28656.4003,28548.62,MULTI-STOREY_CAR_PARK,ELECTRONIC_PARKING,WHOLE_DAY,SUN_&_PH_FR_7AM-10.30PM,1,12,2.15,0,530.0,1.2744580741015783,103.83921657284013,invalid
BLK 54 CHIN SWEE ROAD MSCP,28873.2635,29983.8819,MULTI-STOREY_CAR_PARK,ELECTRONIC_PARKING,WHOLE_DAY,SUN_&_PH_FR_7AM-10.30PM,1,10,1.9,0,488.0,1.2874380741610159,103.84116520631513,invalid
BLK 441 COMMONWEALTH AVE WEST,20293.6227,33003.4096,MULTI-STOREY_CAR_PARK,ELECTRONIC_PARKING,WHOLE_DAY,NO,1,2,2.15,0,264.0,1.314744665034573,103.76407292318439,invalid
BLK 8C BOON KENG ROAD,31083.7452,33199.2328,MULTI-STOREY_CAR_PARK,ELECTRONIC_PARKING,7AM-10.30PM,NO,0,6,2.15,0,441.0,1.31651643285494,103.861027597963,KALLANG
BLK 1/1A TELOK PAKU ROAD,45233.8667,41140.4649,OTHERS,ELECTRONIC_PARKING,WHOLE_DAY,NO,1,0,3.8,0,414.0,1.388329162827992,103.98817800327289,invalid
BLK 309A CLEMENTI AVE 4,20528.1198,33646.8063,MULTI-STOREY_CAR_PARK,ELECTRONIC_PARKING,WHOLE_DAY,SUN_&_PH_FR_7AM-10.30PM,1,7,2.15,0,290.0,1.3205633714110514,103.76617984015797,CLEMENTI
BLK 318A CLEMENTI AVE 4,20417.4455,33296.1766,MULTI-STOREY_CAR_PARK,ELECTRONIC_PARKING,WHOLE_DAY,SUN_&_PH_FR_7AM-10.30PM,1,2,2.15,0,211.0,1.31739237532048,103.76518546060076,invalid
BLK 440 CLEMENTI AVE 3,20278.0675,33166.8296,MULTI-STOREY_CAR_PARK,ELECTRONIC_PARKING,WHOLE_DAY,NO,1,6,2.15,0,285.0,1.3162225728150843,103.76393311116514,invalid
BLK 445 CLEMENTI AVE3,20269.322,32850.6337,MULTI-STOREY_CAR_PARK,ELECTRONIC_PARKING,WHOLE_DAY,NO,1,14,2.15,0,339.0,1.3133630086406858,103.76385460751854,invalid
BLK 462A CLEMENTI AVENUE 3,20469.2131,32645.0967,MULTI-STOREY_CAR_PARK,ELECTRONIC_PARKING,WHOLE_DAY,SUN_&_PH_FR_7AM-10.30PM,1,18,2.15,0,551.0,1.3115042554415306,103.76565077719528,CLEMENTI
BLK 455A CLEMENTI AVE 3,20566.6991,32662.4476,MULTI-STOREY_CAR_PARK,ELECTRONIC_PARKING,WHOLE_DAY,SUN_&_PH_FR_7AM-10.30PM,1,12,2.15,0,384.0,1.311661194434806,103.76652673200101,invalid
BLK 109A CLEMENTI ST 11,20991.1005,33766.9817,MULTI-STOREY_CAR_PARK,ELECTRONIC_PARKING,WHOLE_DAY,SUN_&_PH_FR_7AM-10.30PM,1,6,1.9,0,200.0,1.3216503041788228,103.77033993399925,invalid
BLK 208 CLEMENTI AVE 6,20070.902,33845.674,MULTI-STOREY_CAR_PARK,ELECTRONIC_PARKING,WHOLE_DAY,SUN_&_PH_FR_7AM-10.30PM,1,6,2.15,0,250.0,1.3223617440785436,103.76207145067872,invalid
BLK 416A CLEMENTI AVE 1,20967.8189,32458.1382,MULTI-STOREY_CAR_PARK,ELECTRONIC_PARKING,WHOLE_DAY,SUN_&_PH_FR_7AM-10.30PM,1,2,2.15,0,885.0,1.309813587633046,103.77013103455899,invalid
BLK 413A COMMONWEALTH AVENUE WEST,21009.1656,32642.4126,MULTI-STOREY_CAR_PARK,ELECTRONIC_PARKING,WHOLE_DAY,SUN_&_PH_FR_7AM-10.30PM,1,9,2.0,0,394.0,1.3114801086975745,103.77050251295181,invalid
BLK 104C DEPOT ROAD,25576.6096,29218.1692,MULTI-STOREY_CAR_PARK,ELECTRONIC_PARKING,WHOLE_DAY,SUN_&_PH_FR_7AM-10.30PM,1,14,2.15,0,416.0,1.2805131560457597,103.81154349195451,invalid
BLK 112C DEPOT ROAD,25165.8976,29305.1091,MULTI-STOREY_CAR_PARK,ELECTRONIC_PARKING,WHOLE_DAY,SUN_&_PH_FR_7AM-10.30PM,1,14,2.15,0,481.0,1.2812993757006332,103.80785308038976,invalid
108A DEPOT ROAD,25390.1316,29254.1321,MULTI-STOREY_CAR_PARK,ELECTRONIC_PARKING,WHOLE_DAY,SUN_&_PH_FR_7AM-10.30PM,1,11,2.15,0,416.0,1.2808383769937828,103.80986791310744,invalid
BLK 105 DEPOT ROAD,25668.1428,29257.6985,MULTI-STOREY_CAR_PARK,ELECTRONIC_PARKING,WHOLE_DAY,NO,1,3,2.15,0,416.0,1.2808706520545836,103.81236594973795,invalid
BLOCK 110 DEPOT ROAD,25346.6693,29308.7018,OTHERS,ELECTRONIC_PARKING,WHOLE_DAY,NO,1,1,2.15,1,84.0,1.2813318825559277,103.80947738316948,invalid
BLK 1 CANTONMENT ROAD,28860.8985,28827.1925,OTHERS,ELECTRONIC_PARKING,7AM-10.30PM,NO,0,3,2.1,1,1090.0,1.2769773813172818,103.8410540704323,OUTRAM
BLK 95A DAWSON ROAD,25620.1022,30938.7202,MULTI-STOREY_CAR_PARK,ELECTRONIC_PARKING,WHOLE_DAY,NO,1,13,2.15,0,391.0,1.2960732173646476,103.81193415972382,QUEENSTOWN
BLK 89A DAWSON ROAD,25626.2862,30840.6986,MULTI-STOREY_CAR_PARK,ELECTRONIC_PARKING,7AM-10.30PM,NO,0,4,2.15,0,391.0,1.2951867450181411,103.81198973307656,invalid
BLK 85 DAWSON ROAD,25362.2059,30853.9755,MULTI-STOREY_CAR_PARK,ELECTRONIC_PARKING,WHOLE_DAY,NO,1,13,2.15,0,425.0,1.2953067953956627,103.80961685626276,invalid
BLK 78A DAWSON ROAD,25420.9278,30734.4029,MULTI-STOREY_CAR_PARK,ELECTRONIC_PARKING,WHOLE_DAY,NO,1,13,2.15,0,318.0,1.2942254278456495,103.81014450777569,invalid
BLK 31A EUNOS CRESCENT,35602.0712,33587.8309,MULTI-STOREY_CAR_PARK,ELECTRONIC_PARKING,WHOLE_DAY,SUN_&_PH_FR_7AM-10.30PM,1,10,2.15,0,423.0,1.3200299878552892,103.90162713697123,invalid
BLK 6A EVERTON ROAD,28622.0835,28739.5121,MULTI-STOREY_CAR_PARK,ELECTRONIC_PARKING,WHOLE_DAY,SUN_&_PH_FR_7AM-10.30PM,1,9,2.15,0,530.0,1.2761844360827435,103.83890822772904,BUKIT MERAH
BLK 808 FRENCH ROAD MSCP,31121.2668,32341.4155,MULTI-STOREY_CAR_PARK,ELECTRONIC_PARKING,WHOLE_DAY,SUN_&_PH_FR_7AM-10.30PM,1,9,2.5,0,272.0,1.308758633048291,103.86136466220749,KALLANG
BLK 3/4 QUEEN'S ROAD,25150.3008,33394.0586,OTHERS,ELECTRONIC_PARKING,WHOLE_DAY,NO,1,0,2.4,0,440.0,1.3182783907026883,103.80771256448324,BUKIT TIMAH
BLK 8A EMPRESS ROAD,24983.1434,33218.9585,MULTI-STOREY_CAR_PARK,ELECTRONIC_PARKING,WHOLE_DAY,NO,1,12,2.15,0,440.0,1.3166948314211013,103.80621058640887,invalid
BLK 6A FARRER ROAD,25130.4814,33238.9594,MULTI-STOREY_CAR_PARK,ELECTRONIC_PARKING,WHOLE_DAY,NO,1,3,2.15,0,440.0,1.3168757266186237,103.80753449141054,invalid
BLK 60A GEYLANG BAHRU,31930.2182,33890.9953,MULTI-STOREY_CAR_PARK,ELECTRONIC_PARKING,WHOLE_DAY,SUN_&_PH_FR_7AM-10.30PM,1,12,2.15,0,685.0,1.3227723905559787,103.86863367566639,KALLANG
BLK 118 ALJUNIED AVE 2,34041.285,33588.5472,MULTI-STOREY_CAR_PARK,ELECTRONIC_PARKING,WHOLE_DAY,SUN_&_PH_FR_7AM-10.30PM,1,9,1.8,0,290.0,1.320036813606303,103.88760266728211,invalid
BLK 24 GHIM MOH LINK,22713.9209,32338.0954,MULTI-STOREY_CAR_PARK,ELECTRONIC_PARKING,NO,SUN_&_PH_FR_7AM-10.30PM,1,7,2.15,0,705.0,1.3087283120092683,103.785820620833,QUEENSTOWN
BLK 2A GHIM MOH ROAD,22836.9123,32767.7127,MULTI-STOREY_CAR_PARK,ELECTRONIC_PARKING,WHOLE_DAY,SUN_&_PH_FR_7AM-10.30PM,1,2,2.15,0,212.0,1.3126136388646843,103.78692568583948,QUEENSTOWN
BLK 5A GHIM MOH RD,22985.068,32801.7739,MULTI-STOREY_CAR_PARK,ELECTRONIC_PARKING,WHOLE_DAY,SUN_&_PH_FR_7AM-10.30PM,1,2,2.15,0,212.0,1.3129217007451546,103.78825693218896,invalid
31A GHIM MOH LINK,22552.3566,32407.3317,MULTI-STOREY_CAR_PARK,ELECTRONIC_PARKING,WHOLE_DAY,SUN_&_PH_FR_7AM-10.30PM,1,7,2.15,0,410.0,1.3093544323655109,103.78436887624203,invalid
BLK 8A GHIM MOH RD,22874.5952,32575.0244,MULTI-STOREY_CAR_PARK,ELECTRONIC_PARKING,WHOLE_DAY,SUN_&_PH_FR_7AM-10.30PM,1,5,2.15,0,400.0,1.310871040730973,103.78726431710507,invalid
BLK 13A GHIM MOH RD,23036.915,32422.5932,MULTI-STOREY_CAR_PARK,ELECTRONIC_PARKING,7AM-7PM,SUN_&_PH_FR_7AM-10.30PM,0,5,2.15,0,160.0,1.3094925337172718,103.788722863762,invalid
BLK 16A GHIM MOH ROAD,22917.7735,32435.7026,MULTI-STOREY_CAR_PARK,ELECTRONIC_PARKING,WHOLE_DAY,SUN_&_PH_FR_7AM-10.30PM,1,7,2.15,0,225.0,1.3096110710678959,103.78765231793031,invalid
BLK 2 GEYLANG SERAI,35236.2639,33275.6378,MULTI-STOREY_CAR_PARK,ELECTRONIC_PARKING,WHOLE_DAY,NO,1,7,2.15,0,464.0,1.317206714246541,103.89834009661357,invalid
BLK 104A HENDERSON CRESCENT,26691.3633,30161.685,MULTI-STOREY_CAR_PARK,ELECTRONIC_PARKING,WHOLE_DAY,SUN_&_PH_FR_7AM-10.30PM,1,11,2.1,0,385.0,1.2890460476816035,103.82155994001779,invalid
BLK 480 480 LORONG 6 TOA PAYOH,29669.4119,34933.9237,OTHERS,ELECTRONIC_PARKING,WHOLE_DAY,NO,1,3,2.1,1,553.0,1.3322044726378632,103.84831918865638,invalid
BLK 470 UPPER SERANGOON CRESCENT,35619.4738,40071.2687,MULTI-STOREY_CAR_PARK,ELECTRONIC_PARKING,WHOLE_DAY,SUN_&_PH_FR_7AM-10.30PM,1,14,2.15,0,455.0,1.3786638473853399,103.90178514726799,HOUGANG
BLK 475 UPPER SERANGOON CRESCENT,35497.5223,39745.8425,MULTI-STOREY_CAR_PARK,ELECTRONIC_PARKING,WHOLE_DAY,SUN_&_PH_FR_7AM-10.30PM,1,14,2.15,0,435.0,1.3757208427288228,103.90068924136034,HOUGANG
BLK 476 UPP SERANGOON VIEW,35829.7203,39930.3842,MULTI-STOREY_CAR_PARK,ELECTRONIC_PARKING,WHOLE_DAY,NO,1,8,2.15,0,455.0,1.3773896839264785,103.90367432817467,invalid
BLK 376 HOUGANG ST 32,34765.7308,38421.4154,MULTI-STOREY_CAR_PARK,ELECTRONIC_PARKING,WHOLE_DAY,NO,1,10,2.15,0,416.0,1.363743381472033,103.89411326609518,invalid
BLK 377 HOUGANG STREET 32,34832.7635,38300.6631,MULTI-STOREY_CAR_PARK,ELECTRONIC_PARKING,WHOLE_DAY,NO,1,5,2.1,0,416.0,1.362651325984246,103.89471557255526,invalid
BLK 473 UPP SERANGOON CRESCENT,35501.0297,39817.8795,MULTI-STOREY_CAR_PARK,ELECTRONIC_PARKING,WHOLE_DAY,SUN_&_PH_FR_7AM-10.30PM,1,2,2.15,0,435.0,1.376372318247321,103.90072077615486,HOUGANG
BLK 933 HOUGANG AVENUE 9,33468.3697,39724.6803,MULTI-STOREY_CAR_PARK,ELECTRONIC_PARKING,WHOLE_DAY,NO,1,14,2.15,0,438.0,1.3755299072635618,103.8824558385079,HOUGANG
BLK 364 / 365 UPP SERANGOON RD,35112.2965,39125.1711,MULTI-STOREY_CAR_PARK,ELECTRONIC_PARKING,WHOLE_DAY,NO,1,14,2.15,0,425.0,1.3701078117066328,103.8972275612915,HOUGANG
BLK 997 BUANGKOK CRESCENT,33282.6779,40818.5609,MULTI-STOREY_CAR_PARK,ELECTRONIC_PARKING,WHOLE_DAY,NO,1,14,2.15,0,373.0,1.385422602428168,103.88078745980074,invalid
BLK 991 BUANGKOK LINK,33375.828,40694.4027,MULTI-STOREY_CAR_PARK,ELECTRONIC_PARKING,WHOLE_DAY,NO,1,7,2.15,0,418.0,1.3842997435333617,103.88162446141355,invalid
BLK 996 BUANGKOK CRESCENT,33418.229,40968.2736,MULTI-STOREY_CAR_PARK,ELECTRONIC_PARKING,WHOLE_DAY,NO,1,15,2.15,0,348.0,1.3867765250799937,103.88200551694216,HOUGANG
BLK 998 BUANGKOK CRESCENT,33158.7215,40684.5984,MULTI-STOREY_CAR_PARK,ELECTRONIC_PARKING,WHOLE_DAY,NO,1,11,2.15,0,354.0,1.384211116156454,103.87967359393373,invalid
BLK 993 BUANGKOK LINK,33602.1418,40785.1834,MULTI-STOREY_CAR_PARK,ELECTRONIC_PARKING,WHOLE_DAY,NO,1,13,2.15,0,367.0,1.3851206887907648,103.88365807896564,invalid
BLK 805 HOUGANG CENTRAL,34748.896,39244.171,MULTI-STOREY_CAR_PARK,ELECTRONIC_PARKING,WHOLE_DAY,NO,1,8,1.9,0,331.0,1.3711840890820357,103.89396218073213,invalid
BLK 830A HOUGANG CENTRAL,34386.2027,39209.6336,MULTI-STOREY_CAR_PARK,ELECTRONIC_PARKING,7AM-10.30PM,SUN_&_PH_FR_7AM-10.30PM,0,10,1.87,0,416.0,1.3708718261551998,103.89070311870604,invalid
BLK 220-222 HOUGANG STREET 21,33679.7387,37636.4156,MULTI-STOREY_CAR_PARK,ELECTRONIC_PARKING,WHOLE_DAY,SUN_&_PH_FR_7AM-10.30PM,1,10,1.86,0,327.0,1.3566443539408721,103.8843547430977,HOUGANG
BLK 548A HOUGANG STREET 51,34440.7881,40108.8916,MULTI-STOREY_CAR_PARK,ELECTRONIC_PARKING,WHOLE_DAY,NO,1,11,2.0,0,415.0,1.3790043779578538,103.89119380269584,invalid
BLK 559A HOUGANG STREET 51,34213.8314,40180.7212,MULTI-STOREY_CAR_PARK,ELECTRONIC_PARKING,WHOLE_DAY,NO,1,7,2.0,0,315.0,1.3796540278489127,103.88915444541885,invalid
BLK 566A HOUGANG STREET 51,34147.6282,40310.4206,MULTI-STOREY_CAR_PARK,ELECTRONIC_PARKING,WHOLE_DAY,NO,1,10,2.0,0,380.0,1.3808269962216202,103.88855958799294,HOUGANG
BLK 465A UPPER SERANGOON ROAD,35127.5269,39373.949,MULTI-STOREY_CAR_PARK,ELECTRONIC_PARKING,WHOLE_DAY,SUN_&_PH_FR_7AM-10.30PM,1,11,2.0,0,240.0,1.372357665071261,103.89736447686515,HOUGANG
BLK 838A HOUGANG CENTRAL,34512.6726,39104.8807,MULTI-STOREY_CAR_PARK,ELECTRONIC_PARKING,WHOLE_DAY,SUN_&_PH_FR_7AM-10.30PM,1,10,2.0,0,425.0,1.3699244511698179,103.89183951666408,HOUGANG
BLK 850A HOUGANG CENTRAL,34638.456,39111.1082,MULTI-STOREY_CAR_PARK,ELECTRONIC_PARKING,WHOLE_DAY,SUN_&_PH_FR_7AM-10.30PM,1,10,2.0,0,425.0,1.3699807423866348,103.8929697698494,invalid
BLK 567A HOUGANG STREET 51,34141.9377,40105.4776,MULTI-STOREY_CAR_PARK,ELECTRONIC_PARKING,WHOLE_DAY,NO,1,10,2.15,0,346.0,1.3789735671373302,103.88850841193016,invalid
BLK 574A HOUGANG STREET 51,33904.3999,39964.9457,MULTI-STOREY_CAR_PARK,ELECTRONIC_PARKING,WHOLE_DAY,SUN_&_PH_FR_7AM-10.30PM,1,10,2.15,0,444.0,1.3777026962814964,103.88637393238078,invalid
BLK 576A HOUGANG AVENUE 4,33852.9205,40066.849,MULTI-STOREY_CAR_PARK,ELECTRONIC_PARKING,WHOLE_DAY,SUN_&_PH_FR_7AM-10.30PM,1,12,2.15,0,381.0,1.3786242831960847,103.88591137264302,invalid
BLK 909A HOUGANG STREET 91,33590.2913,40031.4783,MULTI-STOREY_CAR_PARK,ELECTRONIC_PARKING,WHOLE_DAY,SUN_&_PH_FR_7AM-10.30PM,1,12,2.15,0,451.0,1.3783044546256256,103.88355145011192,invalid
BLK 166A HOUGANG AVENUE 1,34093.2753,36992.4181,MULTI-STOREY_CAR_PARK,ELECTRONIC_PARKING,WHOLE_DAY,SUN_&_PH_FR_7AM-10.30PM,1,12,2.15,0,327.0,1.3508201907160524,103.88807050800904,HOUGANG
BLK 172A HOUGANG AVENUE 1,34196.4873,36967.1434,MULTI-STOREY_CAR_PARK,ELECTRONIC_PARKING,WHOLE_DAY,SUN_&_PH_FR_7AM-10.30PM,1,12,2.15,0,327.0,1.3505915942279874,103.88899792755912,invalid
BLK 159A HOUGANG STREET 11,33136.498,37101.9975,MULTI-STOREY_CAR_PARK,ELECTRONIC_PARKING,WHOLE_DAY,SUN_&_PH_FR_7AM-10.30PM,1,7,2.15,0,270.0,1.3518113670729834,103.87947328009963,invalid
BLK 919A HOUGANG AVENUE 4,33667.3839,39716.3125,MULTI-STOREY_CAR_PARK,ELECTRONIC_PARKING,WHOLE_DAY,SUN_&_PH_FR_7AM-10.30PM,1,10,2.15,0,370.0,1.3754541941864598,103.88424412307084,HOUGANG
BLK 925A HOUGANG STREET 91,33558.5205,39862.4297,MULTI-STOREY_CAR_PARK,ELECTRONIC_PARKING,WHOLE_DAY,SUN_&_PH_FR_7AM-10.30PM,1,10,2.15,0,490.0,1.3767756461828884,103.88326593439805,invalid
BLK 931A HOUGANG STREET 91,33249.7444,39781.9719,MULTI-STOREY_CAR_PARK,ELECTRONIC_PARKING,7AM-10.30PM,NO,0,10,2.15,0,350.0,1.3760480717091108,103.880491342577,invalid
BLK 941A HOUGANG STREET 92,33091.2937,39576.5271,MULTI-STOREY_CAR_PARK,ELECTRONIC_PARKING,WHOLE_DAY,SUN_&_PH_FR_7AM-10.30PM,1,12,2.15,0,412.0,1.3741901308817597,103.87906751297763,invalid
BLK 946A HOUGANG STREET 92,33253.8313,39628.6415,MULTI-STOREY_CAR_PARK,ELECTRONIC_PARKING,WHOLE_DAY,SUN_&_PH_FR_7AM-10.30PM,1,12,2.15,0,388.0,1.374661406137119,103.8805280390918,HOUGANG
BLK 955A HOUGANG AVENUE 9,32957.2644,39767.9074,MULTI-STOREY_CAR_PARK,ELECTRONIC_PARKING,WHOLE_DAY,SUN_&_PH_FR_7AM-10.30PM,1,12,2.15,0,394.0,1.3759209282630822,103.87786319567921,invalid
BLK 699D HOUGANG STREET 52,34150.9965,39781.4108,MULTI-STOREY_CAR_PARK,ELECTRONIC_PARKING,WHOLE_DAY,SUN_&_PH_FR_7AM-10.30PM,1,12,2.15,0,697.0,1.376042822392528,103.88858974438214,HOUGANG
BLK 435A HOUGANG AVE 8,34756.316,39980.4127,MULTI-STOREY_CAR_PARK,ELECTRONIC_PARKING,WHOLE_DAY,SUN_&_PH_FR_7AM-10.30PM,1,12,2.15,0,440.0,1.3778423903615684,103.89402902276245,invalid
BLK 966A HOUGANG AVENUE 9,32955.07,39984.6887,MULTI-STOREY_CAR_PARK,ELECTRONIC_PARKING,WHOLE_DAY,SUN_&_PH_FR_7AM-10.30PM,1,12,2.15,0,388.0,1.3778814205799572,103.87784351376946,invalid
BLK 971A HOUGANG STREET 91,33219.5565,39999.7403,MULTI-STOREY_CAR_PARK,ELECTRONIC_PARKING,WHOLE_DAY,SUN_&_PH_FR_7AM-10.30PM,1,12,2.15,0,388.0,1.378017495945134,103.88022012092752,invalid
BLK 373A HOUGANG STREET 31,34315.7845,38258.1777,MULTI-STOREY_CAR_PARK,ELECTRONIC_PARKING,WHOLE_DAY,SUN_&_PH_FR_7AM-10.30PM,1,12,2.15,0,382.0,1.3622672179706894,103.89007015976657,invalid
BLK 980 BUANGKOK CRESCENT,33208.1321,40216.5463,MULTI-STOREY_CAR_PARK,ELECTRONIC_PARKING,WHOLE_DAY,SUN_&_PH_FR_7AM-10.30PM,1,13,2.15,0,383.0,1.3799782132036214,103.88011750262257,invalid
BLK 984 BUANGKOK LINK,33267.1427,40391.5643,MULTI-STOREY_CAR_PARK,ELECTRONIC_PARKING,WHOLE_DAY,SUN_&_PH_FR_7AM-10.30PM,1,13,2.15,0,382.0,1.3815610022490354,103.88064778773821,invalid
BLK 105 HOUGANG AVENUE 1,34319.1474,37341.5832,MULTI-STOREY_CAR_PARK,ELECTRONIC_PARKING,WHOLE_DAY,NO,1,2,2.15,0,354.0,1.3539778672243796,103.8901001842713,invalid
BLK 988 BUANGKOK GREEN,32938.9335,40216.0826,MULTI-STOREY_CAR_PARK,ELECTRONIC_PARKING,WHOLE_DAY,SUN_&_PH_FR_7AM-10.30PM,1,9,2.15,0,280.0,1.3799740663044293,103.87769855426524,invalid
BLK 533A HONG LIM MSCP,29354.6692,29687.508,MULTI-STOREY_CAR_PARK,ELECTRONIC_PARKING,WHOLE_DAY,NO,1,11,1.9,0,488.0,1.2847577556273693,103.84549081920295,invalid
BLK 96 HENDERSON ROAD,26668.6582,29993.0383,MULTI-STOREY_CAR_PARK,ELECTRONIC_PARKING,WHOLE_DAY,SUN_&_PH_FR_7AM-10.30PM,1,9,2.15,0,751.0,1.287520865220459,103.82135593247592,invalid
BLK 51 HAVELOCK ROAD,27376.7446,30252.7338,MULTI-STOREY_CAR_PARK,ELECTRONIC_PARKING,WHOLE_DAY,SUN_&_PH_FR_7AM-10.30PM,1,10,2.15,0,583.0,1.289869482205703,103.82771837120629,BUKIT MERAH
BLK 96 HAVELOCK ROAD MSCP,27905.0274,30102.5966,MULTI-STOREY_CAR_PARK,ELECTRONIC_PARKING,WHOLE_DAY,SUN_&_PH_FR_7AM-10.30PM,1,10,1.9,0,219.0,1.288511700181495,103.832465211569,BUKIT MERAH
BLK 28A BEO CRESCENT,27392.1841,30064.5769,MULTI-STOREY_CAR_PARK,ELECTRONIC_PARKING,WHOLE_DAY,SUN_&_PH_FR_7AM-10.30PM,1,5,2.0,0,229.0,1.2881678575922197,103.82785710514734,invalid
BLK 44A HAVELOCK ROAD,27294.4381,30155.4567,MULTI-STOREY_CAR_PARK,ELECTRONIC_PARKING,WHOLE_DAY,SUN_&_PH_FR_7AM-10.30PM,1,6,2.15,0,336.0,1.2889897405337594,103.8269788153763,invalid
BLK 78A INDUS RD,27399.5432,30402.6587,MULTI-STOREY_CAR_PARK,ELECTRONIC_PARKING,WHOLE_DAY,SUN_&_PH_FR_7AM-10.30PM,1,5,2.15,0,373.0,1.2912253507738878,103.82792322321062,BUKIT MERAH
BLK 134A JALAN BUKIT MERAH,27317.7804,29079.9207,MULTI-STOREY_CAR_PARK,ELECTRONIC_PARKING,WHOLE_DAY,SUN_&_PH_FR_7AM-10.30PM,1,11,1.9,0,381.0,1.2792629708630556,103.82718857877008,BUKIT MERAH
BLK 113A JLN BUKIT MERAH,27105.3295,29188.4439,MULTI-STOREY_CAR_PARK,ELECTRONIC_PARKING,WHOLE_DAY,SUN_&_PH_FR_7AM-10.30PM,1,10,2.15,0,237.0,1.2802444113188276,103.8252796242052,invalid
BLK 2 JOO CHIAT RD,35293.685,33059.6021,MULTI-STOREY_CAR_PARK,ELECTRONIC_PARKING,WHOLE_DAY,NO,1,7,1.9,0,377.0,1.3152529513564701,103.89885600323052,invalid
BLK 8A JALAN KUKOH MSCP,28629.3066,29963.8422,MULTI-STOREY_CAR_PARK,ELECTRONIC_PARKING,WHOLE_DAY,SUN_&_PH_FR_7AM-10.30PM,1,3,1.98,0,457.0,1.2872568479780275,103.83897315415314,OUTRAM
BLK 117A JALAN MEMBINA,27298.7467,29375.368,MULTI-STOREY_CAR_PARK,ELECTRONIC_PARKING,WHOLE_DAY,SUN_&_PH_FR_7AM-10.30PM,1,14,2.15,0,492.0,1.2819348922298388,103.82701754725305,BUKIT MERAH
BLK 18A JALAN MEMBINA,27274.0467,29729.2354,MULTI-STOREY_CAR_PARK,ELECTRONIC_PARKING,WHOLE_DAY,SUN_&_PH_FR_7AM-10.30PM,1,14,2.15,0,664.0,1.2851351442786731,103.8267956000755,invalid
BLK 26 JALAN MEMBINA,27140.8217,29448.5025,MULTI-STOREY_CAR_PARK,ELECTRONIC_PARKING,WHOLE_DAY,SUN_&_PH_FR_7AM-10.30PM,1,13,2.15,0,456.0,1.2825962910752642,103.8255985280811,invalid
BLK 517B JURONG WEST STREET 52,15461.2578,36356.8719,MULTI-STOREY_CAR_PARK,ELECTRONIC_PARKING,WHOLE_DAY,SUN_&_PH_FR_7AM-10.30PM,1,10,2.15,0,343.0,1.3450705393275175,103.72065037678253,invalid
BLK 648 JURONG WEST ST 61,12861.1777,35680.0784,MULTI-STOREY_CAR_PARK,ELECTRONIC_PARKING,WHOLE_DAY,SUN_&_PH_FR_7AM-10.30PM,1,12,2.15,0,420.0,1.3389486784923128,103.69728745900903,JURONG WEST
BLK 686 JURONG WEST CENTRAL 1,13624.8076,35994.9675,MULTI-STOREY_CAR_PARK,ELECTRONIC_PARKING,WHOLE_DAY,SUN_&_PH_FR_7AM-10.30PM,1,6,2.15,0,573.0,1.3417967899714978,103.70414895637855,invalid
BLK 624A JURONG WEST STREET 61,12989.0554,35920.273,MULTI-STOREY_CAR_PARK,ELECTRONIC_PARKING,WHOLE_DAY,SUN_&_PH_FR_7AM-10.30PM,1,12,2.15,0,470.0,1.3411209710444365,103.69843639350871,invalid
BLK 601A JURONG WEST STREET 62,13134.6714,35737.8133,MULTI-STOREY_CAR_PARK,ELECTRONIC_PARKING,WHOLE_DAY,SUN_&_PH_FR_7AM-10.30PM,1,19,2.15,0,1034.0,1.3394709470052701,103.69974492611514,invalid
BLK 635A JURONG WEST STREET 65,13026.1447,36061.7744,MULTI-STOREY_CAR_PARK,ELECTRONIC_PARKING,WHOLE_DAY,SUN_&_PH_FR_7AM-10.30PM,1,12,2.15,0,493.0,1.342400674377113,103.69876959218979,JURONG WEST
BLK 617A JURONG WEST STREET 65,13172.241,35894.5938,MULTI-STOREY_CAR_PARK,ELECTRONIC_PARKING,WHOLE_DAY,SUN_&_PH_FR_7AM-10.30PM,1,12,2.15,0,488.0,1.3408888288394545,103.70008243365508,invalid
BLK 659 JURONG WEST ST 65,13399.316,35488.4096,MULTI-STOREY_CAR_PARK,ELECTRONIC_PARKING,WHOLE_DAY,SUN_&_PH_FR_7AM-10.30PM,1,12,2.15,0,534.0,1.3372155636603182,103.70212302793485,invalid
BLK 660 JURONG WEST ST 64,13617.7777,35278.113,MULTI-STOREY_CAR_PARK,ELECTRONIC_PARKING,WHOLE_DAY,SUN_&_PH_FR_7AM-10.30PM,1,12,2.15,0,954.0,1.335313825451302,103.70408612809914,JURONG WEST
BLK 629A JURONG WEST ST 65,13110.6908,36127.6675,MULTI-STOREY_CAR_PARK,ELECTRONIC_PARKING,WHOLE_DAY,SUN_&_PH_FR_7AM-10.30PM,1,12,2.15,0,430.0,1.3429966284896666,103.69952925533713,JURONG WEST
BLK 273 JURONG WEST AVENUE 3,13477.0963,37120.2881,MULTI-STOREY_CAR_PARK,ELECTRONIC_PARKING,WHOLE_DAY,SUN_&_PH_FR_7AM-10.30PM,1,13,2.15,0,356.0,1.351973692062514,103.7028211437118,invalid
BLK 682 JURONG WEST CENTRAL 1,13715.4817,36231.4554,MULTI-STOREY_CAR_PARK,ELECTRONIC_PARKING,WHOLE_DAY,SUN_&_PH_FR_7AM-10.30PM,1,10,2.15,0,627.0,1.3439355403155548,103.70496360394917,invalid
BLK 657 JURONG WEST STREET 65,13269.4787,35285.1266,MULTI-STOREY_CAR_PARK,ELECTRONIC_PARKING,WHOLE_DAY,SUN_&_PH_FR_7AM-10.30PM,1,14,2.15,0,925.0,1.3353770862050354,103.70095646554981,invalid
BLK 651 JURONG WEST STREET 61,12848.9764,35472.8488,MULTI-STOREY_CAR_PARK,ELECTRONIC_PARKING,WHOLE_DAY,SUN_&_PH_FR_7AM-10.30PM,1,12,2.15,0,457.0,1.337074566706119,103.69717792676818,JURONG WEST
BLK 674 JURONG WEST STREET 65,13451.5242,36321.3672,MULTI-STOREY_CAR_PARK,ELECTRONIC_PARKING,WHOLE_DAY,SUN_&_PH_FR_7AM-10.30PM,1,12,2.15,0,600.0,1.3447485419675698,103.70259174815797,invalid
BLK 276 JURONG WEST STREET 25,13584.64,37295.9859,MULTI-STOREY_CAR_PARK,ELECTRONIC_PARKING,WHOLE_DAY,SUN_&_PH_FR_7AM-10.30PM,1,12,2.15,0,328.0,1.353562688433662,103.703787405644,JURONG WEST
BLK 655 JURONG WEST STREET 61,12947.1123,35275.2364,MULTI-STOREY_CAR_PARK,ELECTRONIC_PARKING,WHOLE_DAY,SUN_&_PH_FR_7AM-10.30PM,1,12,2.15,0,782.0,1.3352874843035507,103.69805983031736,invalid
BLK 673 JURONG WEST ST 65,13232.9976,36272.1883,MULTI-STOREY_CAR_PARK,ELECTRONIC_PARKING,WHOLE_DAY,SUN_&_PH_FR_7AM-10.30PM,1,12,2.15,0,510.0,1.3443036800399317,103.70062818236656,invalid
BLK 675 JURONG WEST ST 64,13511.8473,36412.4785,MULTI-STOREY_CAR_PARK,ELECTRONIC_PARKING,WHOLE_DAY,SUN_&_PH_FR_7AM-10.30PM,1,11,2.15,0,571.0,1.345572547207182,103.70313374298358,invalid
BLK 676 JURONG WEST ST 64,13673.3012,36493.4353,MULTI-STOREY_CAR_PARK,ELECTRONIC_PARKING,WHOLE_DAY,SUN_&_PH_FR_7AM-10.30PM,1,11,2.15,0,481.0,1.3463047673601203,103.70458446329312,invalid
BLK 990 JURONG WEST ST 93,12683.1316,35279.6451,MULTI-STOREY_CAR_PARK,ELECTRONIC_PARKING,WHOLE_DAY,SUN_&_PH_FR_7AM-10.30PM,1,13,2.1,0,646.0,1.33532722240945,103.69568781607877,invalid
BLK 986 JURONG WEST ST 93,12551.4555,35465.1802,MULTI-STOREY_CAR_PARK,ELECTRONIC_PARKING,WHOLE_DAY,SUN_&_PH_FR_7AM-10.30PM,1,14,2.1,0,641.0,1.3370050641486007,103.69450453965243,JURONG WEST
BLK 679 JURONG WEST CENTRAL 1,13838.2635,36303.7106,MULTI-STOREY_CAR_PARK,ELECTRONIC_PARKING,WHOLE_DAY,SUN_&_PH_FR_7AM-10.30PM,1,12,2.15,0,564.0,1.3445890471540412,103.7060668364871,JURONG WEST
BLK 271 JURONG WEST ST 24,13595.4624,36957.2314,MULTI-STOREY_CAR_PARK,ELECTRONIC_PARKING,WHOLE_DAY,SUN_&_PH_FR_7AM-10.30PM,1,10,2.15,0,379.0,1.3504991263574488,103.70388481388862,JURONG WEST
BLK 638A JURONG WEST ST 61,12894.0173,36018.9264,MULTI-STOREY_CAR_PARK,ELECTRONIC_PARKING,WHOLE_DAY,NO,1,8,2.15,0,188.0,1.3420131073387194,103.69758237259093,invalid
697 JURONG WEST CTRL 3,14062.3852,35973.1774,MULTI-STOREY_CAR_PARK,ELECTRONIC_PARKING,WHOLE_DAY,NO,1,16,2.15,0,410.0,1.3415999342718807,103.70808085404205,invalid
BLK 684 JURONG WEST ST 64,13598.5325,36287.4517,MULTI-STOREY_CAR_PARK,ELECTRONIC_PARKING,WHOLE_DAY,SUN_&_PH_FR_7AM-10.30PM,1,13,2.15,0,650.0,1.3444418938574263,103.70391272028856,JURONG WEST
BLK 664 JURONG WEST ST 64,13512.8021,35739.3606,MULTI-STOREY_CAR_PARK,ELECTRONIC_PARKING,WHOLE_DAY,SUN_&_PH_FR_7AM-10.30PM,1,13,2.15,0,704.0,1.3394851242121102,103.70314264442648,JURONG WEST
BLK 663 JURONG WEST ST 65,13359.4862,35709.3734,MULTI-STOREY_CAR_PARK,ELECTRONIC_PARKING,WHOLE_DAY,SUN_&_PH_FR_7AM-10.30PM,1,13,2.15,0,702.0,1.3392138572978476,103.70176502840748,invalid
BLK 669 JURONG WEST ST 64,13497.6635,36071.1758,MULTI-STOREY_CAR_PARK,ELECTRONIC_PARKING,WHOLE_DAY,SUN_&_PH_FR_7AM-10.30PM,1,12,2.1,0,740.0,1.342485928006727,103.70300645678557,JURONG WEST
BLK 667 JURONG WEST ST 65,13330.2931,35944.9436,MULTI-STOREY_CAR_PARK,ELECTRONIC_PARKING,WHOLE_DAY,SUN_&_PH_FR_7AM-10.30PM,1,12,2.1,0,550.0,1.3413442507193378,103.70150259793448,invalid
BLK 650 JURONG WEST ST 61,12808.9157,35648.0735,MULTI-STOREY_CAR_PARK,ELECTRONIC_PARKING,WHOLE_DAY,SUN_&_PH_FR_7AM-10.30PM,1,12,2.15,0,450.0,1.338659212090341,103.69681787145721,invalid
BLK 814 JELLICOE ROAD,31175.747,32165.4237,MULTI-STOREY_CAR_PARK,ELECTRONIC_PARKING,WHOLE_DAY,SUN_&_PH_FR_7AM-10.30PM,1,12,2.15,0,325.0,1.3071670198992562,103.86185417499212,KALLANG
BLK 37A JALAN RUMAH TINGGI,25441.3095,30196.268,MULTI-STOREY_CAR_PARK,ELECTRONIC_PARKING,WHOLE_DAY,SUN_&_PH_FR_7AM-10.30PM,1,12,2.15,0,426.0,1.2893587269753017,103.81032768986444,invalid
BLK 372A JURONG EAST ST 32,16739.1947,36793.4383,MULTI-STOREY_CAR_PARK,ELECTRONIC_PARKING,WHOLE_DAY,SUN_&_PH_FR_7AM-10.30PM,1,8,2.15,0,241.0,1.3490191908456135,103.73213323917892,invalid
560 JURONG WEST ST 42,15352.863,37320.212,MULTI-STOREY_CAR_PARK,ELECTRONIC_PARKING,WHOLE_DAY,SUN_&_PH_FR_7AM-10.30PM,1,12,2.15,0,398.0,1.353782581926777,103.71967598067624,JURONG WEST
BLK 132 JURONG GATEWAY ROAD,17576.3345,35155.1132,MULTI-STOREY_CAR_PARK,ELECTRONIC_PARKING,WHOLE_DAY,NO,1,8,2.0,0,427.0,1.3342030833182368,103.73965601749399,invalid
505A JURONG WEST ST 52,15155.3093,36830.6309,MULTI-STOREY_CAR_PARK,ELECTRONIC_PARKING,WHOLE_DAY,NO,1,13,2.15,0,560.0,1.3493549092892663,103.71790104604126,invalid
BLK 901 JURONG WEST STREET 91,11666.8136,35782.3574,MULTI-STOREY_CAR_PARK,ELECTRONIC_PARKING,WHOLE_DAY,SUN_&_PH_FR_7AM-10.30PM,1,5,1.9,0,497.0,1.3398730274812336,103.68655537092351,JURONG WEST
BLK 354 JURONG EAST AVE 1,16707.915,36290.7825,MULTI-STOREY_CAR_PARK,ELECTRONIC_PARKING,WHOLE_DAY,SUN_&_PH_FR_7AM-10.30PM,1,10,1.9,0,360.0,1.3444733458300595,103.73185235993427,JURONG EAST
BLK 962A JURONG WEST STREET 91,12264.1306,36023.6972,MULTI-STOREY_CAR_PARK,ELECTRONIC_PARKING,WHOLE_DAY,SUN_&_PH_FR_7AM-10.30PM,1,9,1.9,0,469.0,1.3420559299413872,103.69192247618548,invalid
BLK 967 JURONG WEST 91 JURONG WEST STREET 93,12422.54,35944.981,MULTI-STOREY_CAR_PARK,ELECTRONIC_PARKING,WHOLE_DAY,SUN_&_PH_FR_7AM-10.30PM,1,7,2.15,0,378.0,1.3413441331084195,103.69334591602572,JURONG WEST
BLK 712B JURONG WEST ST 71 JURONG WEST STREET 71,12812.9485,36110.9309,MULTI-STOREY_CAR_PARK,ELECTRONIC_PARKING,WHOLE_DAY,NO,1,5,2.15,0,72.0,1.3428451201999902,103.69685387663056,invalid
BLK 841A JURONG WEST STREET 81,12397.1268,36260.1612,MULTI-STOREY_CAR_PARK,ELECTRONIC_PARKING,WHOLE_DAY,SUN_&_PH_FR_7AM-10.30PM,1,10,1.9,0,335.0,1.3441944891692896,103.69311740148584,invalid
BLK 832A JURONG WEST STREET 81,12554.243,36272.307,MULTI-STOREY_CAR_PARK,ELECTRONIC_PARKING,WHOLE_DAY,SUN_&_PH_FR_7AM-10.30PM,1,11,1.9,0,519.0,1.3443044123065464,103.69452917581451,JURONG WEST
BLK 750A JURONG WEST STREET 73,13002.919,36619.5998,MULTI-STOREY_CAR_PARK,ELECTRONIC_PARKING,WHOLE_DAY,SUN_&_PH_FR_7AM-10.30PM,1,10,1.9,0,350.0,1.347445423506806,103.69856061913083,JURONG WEST
BLK 702A JURONG WEST STREET 71,12620.3435,35969.4867,MULTI-STOREY_CAR_PARK,ELECTRONIC_PARKING,WHOLE_DAY,SUN_&_PH_FR_7AM-10.30PM,1,10,1.9,0,458.0,1.34156585497183,103.69512328117342,JURONG WEST
BLK 821A JURONG WEST STREET 81,12599.8443,36515.2018,MULTI-STOREY_CAR_PARK,ELECTRONIC_PARKING,WHOLE_DAY,SUN_&_PH_FR_7AM-10.30PM,1,11,2.0,0,470.0,1.3465010835318134,103.69493880629841,invalid
BLK 240C JURONG EAST AVE 1,17884.6894,35867.6356,MULTI-STOREY_CAR_PARK,ELECTRONIC_PARKING,WHOLE_DAY,SUN_&_PH_FR_7AM-10.30PM,1,10,2.15,0,139.0,1.3406469795967773,103.74242652213053,JURONG EAST
BLK 734A JURONG WEST STREET 73,13270.9893,36409.7045,MULTI-STOREY_CAR_PARK,ELECTRONIC_PARKING,WHOLE_DAY,SUN_&_PH_FR_7AM-10.30PM,1,11,2.0,0,441.0,1.3455473430034546,103.70096949302328,JURONG WEST
BLK 760A JURONG WEST STREET 74,13182.8539,36856.8882,MULTI-STOREY_CAR_PARK,ELECTRONIC_PARKING,WHOLE_DAY,SUN_&_PH_FR_7AM-10.30PM,1,11,1.9,0,374.0,1.3495914590692826,103.700177324868,invalid
BLK 844A JURONG WEST ST 81,12322.8738,36443.2248,MULTI-STOREY_CAR_PARK,ELECTRONIC_PARKING,WHOLE_DAY,SUN_&_PH_FR_7AM-10.30PM,1,10,2.0,0,528.0,1.3458500076506834,103.6924501001392,invalid
BLK 865A JURONG WEST ST 81,12613.8496,36926.4932,MULTI-STOREY_CAR_PARK,ELECTRONIC_PARKING,WHOLE_DAY,SUN_&_PH_FR_7AM-10.30PM,1,8,2.0,0,371.0,1.3502206530155643,103.69506444233126,invalid
BLK 854A JURONG WEST ST 81,12771.2097,36650.4919,MULTI-STOREY_CAR_PARK,ELECTRONIC_PARKING,WHOLE_DAY,SUN_&_PH_FR_7AM-10.30PM,1,10,2.0,0,281.0,1.3477246830725262,103.69647855749301,invalid
BLK 859A JURONG WEST ST 81,12744.1045,36899.5648,MULTI-STOREY_CAR_PARK,ELECTRONIC_PARKING,WHOLE_DAY,SUN_&_PH_FR_7AM-10.30PM,1,8,2.0,0,225.0,1.3499771895467572,103.69623487505143,invalid
BLK 764A JURONG WEST ST 74,13061.8605,36897.8976,MULTI-STOREY_CAR_PARK,ELECTRONIC_PARKING,WHOLE_DAY,SUN_&_PH_FR_7AM-10.30PM,1,8,2.0,0,354.0,1.3499622723359204,103.69909010573176,invalid
BLK 692A JURONG WEST CENTRAL 1,13965.0447,35981.9547,MULTI-STOREY_CAR_PARK,ELECTRONIC_PARKING,WHOLE_DAY,NO,1,12,2.15,0,607.0,1.3416792676491895,103.70720618934286,JURONG WEST
BLK 691A JURONG WEST CENTRAL 1,13819.7717,36058.9311,MULTI-STOREY_CAR_PARK,ELECTRONIC_PARKING,WHOLE_DAY,SUN_&_PH_FR_7AM-10.30PM,1,10,2.1,0,600.0,1.342375345079632,103.70590079148498,invalid
BLK 274A TOH GUAN ROAD,18444.8766,35967.1503,MULTI-STOREY_CAR_PARK,ELECTRONIC_PARKING,WHOLE_DAY,SUN_&_PH_FR_7AM-10.30PM,1,12,2.15,0,485.0,1.3415471370568683,103.74746010063718,JURONG EAST
BLK 287E JURONG EAST STREET 21,18071.4794,35523.767,MULTI-STOREY_CAR_PARK,ELECTRONIC_PARKING,WHOLE_DAY,SUN_&_PH_FR_7AM-10.30PM,1,12,2.15,0,595.0,1.3375372199171942,103.7441050519854,JURONG EAST
BLK 285E TOH GUAN ROAD,18377.6747,35526.0278,MULTI-STOREY_CAR_PARK,ELECTRONIC_PARKING,WHOLE_DAY,SUN_&_PH_FR_7AM-10.30PM,1,12,2.15,0,462.0,1.3375577648770767,103.74685639183146,JURONG EAST
BLK 286E TOH GUAN ROAD,18186.6838,35712.1634,MULTI-STOREY_CAR_PARK,ELECTRONIC_PARKING,WHOLE_DAY,SUN_&_PH_FR_7AM-10.30PM,1,12,2.15,0,491.0,1.3392410457426782,103.74514016877326,JURONG EAST
BLK 288F JURONG EAST STREET 21,17966.9948,35762.0649,MULTI-STOREY_CAR_PARK,ELECTRONIC_PARKING,WHOLE_DAY,SUN_&_PH_FR_7AM-10.30PM,1,12,2.15,0,444.0,1.3396922643624247,103.74316611919521,JURONG EAST
BLK 282A TOH GUAN ROAD,18403.3359,35807.1678,MULTI-STOREY_CAR_PARK,ELECTRONIC_PARKING,WHOLE_DAY,SUN_&_PH_FR_7AM-10.30PM,1,12,2.15,0,500.0,1.3401003005523222,103.7470868836085,JURONG EAST
BLK 267A TOH GUAN ROAD,18166.4546,35964.0009,MULTI-STOREY_CAR_PARK,ELECTRONIC_PARKING,WHOLE_DAY,SUN_&_PH_FR_7AM-10.30PM,1,12,2.15,0,480.0,1.3415185653945154,103.7449583160272,JURONG EAST
BLK 273A TOH GUAN ROAD,18276.4189,36061.6102,MULTI-STOREY_CAR_PARK,ELECTRONIC_PARKING,WHOLE_DAY,SUN_&_PH_FR_7AM-10.30PM,1,12,2.15,0,450.0,1.3424013439260631,103.74594637866043,JURONG EAST
BLK 647A JURONG WEST STREET 61,12813.2745,35771.8721,MULTI-STOREY_CAR_PARK,ELECTRONIC_PARKING,WHOLE_DAY,SUN_&_PH_FR_7AM-10.30PM,1,10,2.15,0,384.0,1.3397788016970964,103.69685697580206,JURONG WEST
BLK 640A JURONG WEST STREET 61,12722.6845,35766.8461,MULTI-STOREY_CAR_PARK,ELECTRONIC_PARKING,WHOLE_DAY,SUN_&_PH_FR_7AM-10.30PM,1,10,2.15,0,504.0,1.3397333027042408,103.69604297580922,JURONG WEST
BLK 334 KRETA AYER BASEMENT CAR PARK,29009.336,29350.1611,OTHERS,ELECTRONIC_PARKING,WHOLE_DAY,NO,1,1,2.1,1,530.0,1.2817069215968342,103.84238785277859,OUTRAM
BLK 335 KRETA AYER MSCP,29110.783,29377.6082,MULTI-STOREY_CAR_PARK,ELECTRONIC_PARKING,WHOLE_DAY,NO,1,2,1.9,0,488.0,1.281955140134134,103.8432993941714,OUTRAM
BLK 65A KALLANG BAHRU,31984.8599,33610.8985,MULTI-STOREY_CAR_PARK,ELECTRONIC_PARKING,WHOLE_DAY,SUN_&_PH_FR_7AM-10.30PM,1,12,2.15,0,304.0,1.3202392875401796,103.86912462402037,KALLANG
BLK 49A WHAMPOA SOUTH,31686.3712,33999.0332,MULTI-STOREY_CAR_PARK,ELECTRONIC_PARKING,WHOLE_DAY,SUN_&_PH_FR_7AM-10.30PM,1,12,2.0,0,415.0,1.3237494773420007,103.86644259415297,KALLANG
BLK 671 KLANG LANE,30136.2998,32358.8836,MULTI-STOREY_CAR_PARK,ELECTRONIC_PARKING,WHOLE_DAY,NO,1,10,2.15,0,213.0,1.3089166922000102,103.8525142617092,ROCHOR
BLK 145A BEDOK RESERVOIR ROAD,36690.7665,35134.9344,MULTI-STOREY_CAR_PARK,ELECTRONIC_PARKING,WHOLE_DAY,NO,1,4,2.15,0,254.0,1.33402114153984,103.91141006264941,BEDOK
BLK 37A CAMBRIDGE ROAD,29722.4759,33152.4737,MULTI-STOREY_CAR_PARK,ELECTRONIC_PARKING,WHOLE_DAY,SUN_&_PH_FR_7AM-10.30PM,1,12,2.15,0,268.0,1.3160936666077356,103.84879589885311,KALLANG
BLK 14A FARRER PARK RD,30084.3192,32664.3631,MULTI-STOREY_CAR_PARK,ELECTRONIC_PARKING,WHOLE_DAY,NO,1,12,2.15,0,470.0,1.3116793444533785,103.85204721150244,KALLANG
BLK 31 KELANTAN LANE MSCP,30613.3563,32065.8984,MULTI-STOREY_CAR_PARK,ELECTRONIC_PARKING,WHOLE_DAY,SUN_&_PH_FR_7AM-10.30PM,1,7,1.8,0,358.0,1.306267000879174,103.85680081928476,ROCHOR
BLK 56A CASSIA CRESCENT,33634.3718,32491.1189,MULTI-STOREY_CAR_PARK,ELECTRONIC_PARKING,WHOLE_DAY,SUN_&_PH_FR_7AM-10.30PM,1,12,2.0,0,455.0,1.3101121410128782,103.88394614159617,GEYLANG
BLK 93A JALAN DUA,34056.2683,32342.8113,MULTI-STOREY_CAR_PARK,ELECTRONIC_PARKING,WHOLE_DAY,SUN_&_PH_FR_7AM-10.30PM,1,9,2.0,0,328.0,1.3087708200412935,103.88773705618027,GEYLANG
BLK 11A PINE CLOSE,33523.1191,32313.2942,MULTI-STOREY_CAR_PARK,ELECTRONIC_PARKING,WHOLE_DAY,SUN_&_PH_FR_7AM-10.30PM,1,12,2.15,0,455.0,1.3085039778619192,103.88294645078568,GEYLANG
BLK 49A JALAN TIGA,33792.0373,32312.0363,MULTI-STOREY_CAR_PARK,ELECTRONIC_PARKING,WHOLE_DAY,NO,1,14,2.15,0,432.0,1.308492552601751,103.88536280878151,GEYLANG
BLK 125A KIM TIAN ROAD,27480.5391,29500.8137,MULTI-STOREY_CAR_PARK,ELECTRONIC_PARKING,7AM-10.30PM,SUN_&_PH_FR_7AM-10.30PM,0,10,1.9,0,251.0,1.283069382670319,103.82865102020018,BUKIT MERAH
BLK 120B KIM TIAN PLACE,27349.7876,29542.5114,MULTI-STOREY_CAR_PARK,ELECTRONIC_PARKING,WHOLE_DAY,SUN_&_PH_FR_7AM-10.30PM,1,14,2.15,0,423.0,1.2834464796052978,103.82747616603861,BUKIT MERAH
BLK 131A KIM TIAN ROAD,27480.2057,29232.1227,MULTI-STOREY_CAR_PARK,ELECTRONIC_PARKING,WHOLE_DAY,SUN_&_PH_FR_7AM-10.30PM,1,13,2.15,0,463.0,1.2806394354926462,103.82864802888751,BUKIT MERAH
BLK 119A KIM TIAN ROAD,27329.8822,29325.2282,MULTI-STOREY_CAR_PARK,ELECTRONIC_PARKING,WHOLE_DAY,SUN_&_PH_FR_7AM-10.30PM,1,5,2.15,0,460.0,1.281481446142533,103.82729731282123,BUKIT MERAH
BLK 126 KIM TIAN ROAD,27570.7265,29441.0716,MULTI-STOREY_CAR_PARK,ELECTRONIC_PARKING,WHOLE_DAY,NO,1,10,2.15,0,418.0,1.2825290974366843,103.82946139003299,BUKIT MERAH
BLK 127 KIM TIAN ROAD,27546.4706,29366.694,MULTI-STOREY_CAR_PARK,ELECTRONIC_PARKING,WHOLE_DAY,NO,1,6,2.15,0,418.0,1.2818564521671447,103.82924344240905,BUKIT MERAH
BLK 64 LENGKOK BAHRU,25985.8189,30193.5347,MULTI-STOREY_CAR_PARK,ELECTRONIC_PARKING,WHOLE_DAY,SUN_&_PH_FR_7AM-10.30PM,1,8,2.15,0,177.0,1.2893340477316115,103.81522033138347,BUKIT MERAH
BLK 157A MEI LING STREET,24676.3894,30639.2696,MULTI-STOREY_CAR_PARK,ELECTRONIC_PARKING,WHOLE_DAY,SUN_&_PH_FR_7AM-10.30PM,1,11,2.15,0,360.0,1.2933650054100585,103.80345452106445,QUEENSTOWN
BLK 161A MEI LING ST,24684.8066,30491.8693,MULTI-STOREY_CAR_PARK,ELECTRONIC_PARKING,WHOLE_DAY,SUN_&_PH_FR_7AM-10.30PM,1,7,2.15,0,412.0,1.2920319699769376,103.80353016873036,QUEENSTOWN
BLK 28A BALAM ROAD,33981.2699,34740.5471,MULTI-STOREY_CAR_PARK,ELECTRONIC_PARKING,WHOLE_DAY,NO,1,10,2.0,0,406.0,1.330455100290608,103.88706362505674,GEYLANG
BLK 52A PIPIT ROAD,33873.4028,34064.3335,MULTI-STOREY_CAR_PARK,ELECTRONIC_PARKING,WHOLE_DAY,SUN_&_PH_FR_7AM-10.30PM,1,12,2.15,0,328.0,1.324339687506112,103.88609424966474,GEYLANG
BLK 66A CIRCUIT ROAD,34087.5573,34277.3707,MULTI-STOREY_CAR_PARK,ELECTRONIC_PARKING,WHOLE_DAY,SUN_&_PH_FR_7AM-10.30PM,1,11,2.15,0,406.0,1.3262662777141818,103.88801858425032,GEYLANG
BLK 31A CIRCUIT ROAD,33805.7605,34616.0975,MULTI-STOREY_CAR_PARK,ELECTRONIC_PARKING,WHOLE_DAY,SUN_&_PH_FR_7AM-10.30PM,1,11,2.15,0,412.0,1.3293296567041755,103.88548655203162,GEYLANG
BLK 17 CIRCUIT ROAD,34149.4724,34667.1985,MULTI-STOREY_CAR_PARK,ELECTRONIC_PARKING,WHOLE_DAY,SUN_&_PH_FR_7AM-10.30PM,1,15,2.15,0,406.0,1.329791728252547,103.88857500311558,GEYLANG
BLK 82 CIRCUIT ROAD,34318.7769,34060.4025,MULTI-STOREY_CAR_PARK,ELECTRONIC_PARKING,WHOLE_DAY,SUN_&_PH_FR_7AM-10.30PM,1,5,2.15,0,406.0,1.3243040479763968,103.89009617246221,GEYLANG
BLK 113 MCNAIR ROAD,30951.0578,33699.6625,MULTI-STOREY_CAR_PARK,ELECTRONIC_PARKING,WHOLE_DAY,SUN_&_PH_FR_7AM-10.30PM,1,12,2.15,0,369.0,1.3210421547957307,103.85983538215343,KALLANG
BLK 108A MCNAIR ROAD,30906.0026,33644.1601,MULTI-STOREY_CAR_PARK,ELECTRONIC_PARKING,WHOLE_DAY,SUN_&_PH_FR_7AM-10.30PM,1,12,2.15,0,363.0,1.3205402150734071,103.85943053232883,KALLANG
BLK 65A MARINE DRIVE,36529.5332,31693.5008,MULTI-STOREY_CAR_PARK,ELECTRONIC_PARKING,WHOLE_DAY,NO,1,5,2.0,0,363.0,1.3028981058096252,103.90996033896582,MARINE PARADE
BLK 89 MARINE PARADE CTRL,36133.3286,31515.2207,MULTI-STOREY_CAR_PARK,ELECTRONIC_PARKING,WHOLE_DAY,NO,1,10,1.9,0,339.0,1.3012859111117976,103.90640021486205,MARINE PARADE
BLK 35A MARINE CRESCENT,36854.4147,31775.1611,MULTI-STOREY_CAR_PARK,ELECTRONIC_PARKING,WHOLE_DAY,NO,1,6,2.15,0,363.0,1.303636521036433,103.91287956925623,MARINE PARADE
BLK 12A MARINE TERRACE,37128.3266,31854.8695,MULTI-STOREY_CAR_PARK,ELECTRONIC_PARKING,WHOLE_DAY,SUN_&_PH_FR_7AM-10.30PM,1,4,2.05,0,363.0,1.304357295530727,103.9153408153675,MARINE PARADE
BLK 16A MARINE TERRACE,37001.0531,31814.983,MULTI-STOREY_CAR_PARK,ELECTRONIC_PARKING,WHOLE_DAY,SUN_&_PH_FR_7AM-10.30PM,1,4,2.05,0,363.0,1.3039966136773664,103.91419719336623,MARINE PARADE
BLK 47A MARINE CRESCENT,36809.7582,31975.4666,MULTI-STOREY_CAR_PARK,ELECTRONIC_PARKING,7AM-10.30PM,NO,0,2,2.15,0,363.0,1.3054480243950703,103.91247836691679,MARINE PARADE
BLK 77A MARINE DRIVE,36343.2232,31627.1688,MULTI-STOREY_CAR_PARK,ELECTRONIC_PARKING,WHOLE_DAY,NO,1,11,2.15,0,319.0,1.3022982737557676,103.90828624158996,MARINE PARADE
BLK 13 NORTH BRIDGE ROAD MSCP,31304.4327,31815.6323,MULTI-STOREY_CAR_PARK,ELECTRONIC_PARKING,WHOLE_DAY,SUN_&_PH_FR_7AM-10.30PM,1,10,1.9,0,409.0,1.3040036166790787,103.86301043995866,KALLANG
BLK 601 TAMPINES AVE 9,39457.9515,38139.8942,MULTI-STOREY_CAR_PARK,ELECTRONIC_PARKING,WHOLE_DAY,SUN_&_PH_FR_7AM-10.30PM,1,2,2.15,0,463.0,1.3611959653243388,103.93627591213483,TAMPINES
BLK 605 TAMPINES ST 61,39463.5572,38242.0507,MULTI-STOREY_CAR_PARK,ELECTRONIC_PARKING,WHOLE_DAY,SUN_&_PH_FR_7AM-10.30PM,1,2,2.15,0,594.0,1.3621198286235536,103.93632632224283,TAMPINES
BLK 609 TAMPINES NTH DR 1,39454.1027,38455.323,MULTI-STOREY_CAR_PARK,ELECTRONIC_PARKING,WHOLE_DAY,SUN_&_PH_FR_7AM-10.30PM,1,4,2.15,0,786.0,1.3640485877681485,103.93624144919546,TAMPINES
613 TAMPINES NTH DR 1,39451.0111,38606.4942,MULTI-STOREY_CAR_PARK,ELECTRONIC_PARKING,WHOLE_DAY,SUN_&_PH_FR_7AM-10.30PM,1,8,2.15,0,520.0,1.3654157251482655,103.93621372719731,TAMPINES
BLK 618 TAMPINES STREET 61,39861.432,38191.3771,MULTI-STOREY_CAR_PARK,ELECTRONIC_PARKING,WHOLE_DAY,NO,1,1,2.15,0,540.0,1.361661399027134,103.9399014697321,TAMPINES
BLK 475 CHOA CHU KANG AVE 3,17475.2563,39985.5474,OTHERS,ELECTRONIC_PARKING,WHOLE_DAY,NO,1,4,2.15,0,298.0,1.3778877152433882,103.7387460775052,CHOA CHU KANG
BLK 533A CHOA CHU KANG ST 51,17989.9222,41499.0296,OTHERS,ELECTRONIC_PARKING,WHOLE_DAY,NO,1,8,2.0,0,318.0,1.3915752693009902,103.74337020617511,CHOA CHU KANG
BLK 399 YUNG SHENG RD,15435.0187,35211.8516,OTHERS,ELECTRONIC_PARKING,WHOLE_DAY,NO,1,1,2.1,1,391.0,1.3347153913634864,103.72041507700847,JURONG WEST
BLK 762A JURONG WEST ST 75,12930.5286,36787.2543,OTHERS,ELECTRONIC_PARKING,WHOLE_DAY,NO,1,8,2.0,0,354.0,1.3489615906402481,103.69791006448118,JURONG WEST
BLK 168 PUNGGOL FIELD,36861.9823,41783.2542,OTHERS,ELECTRONIC_PARKING,NO,NO,0,2,2.15,1,401.0,1.3941460662993008,103.91295050922298,PUNGGOL
BLK 446A FAJAR ROAD,21106.05,40635.5878,OTHERS,ELECTRONIC_PARKING,WHOLE_DAY,NO,1,8,2.15,0,491.0,1.3837675231487212,103.77137123961275,BUKIT PANJANG
BLK 57 DAWSON RD,25514.1791,30563.4425,OTHERS,ELECTRONIC_PARKING,WHOLE_DAY,NO,1,3,2.15,0,170.0,1.2926793297693575,103.81098242424284,QUEENSTOWN
BLK 258 PASIR RIS ST 21,42604.5156,38773.6442,OTHERS,ELECTRONIC_PARKING,WHOLE_DAY,NO,1,3,1.9,0,422.0,1.3669259778172476,103.96455015442625,PASIR RIS
BLK 624A ELIAS RD,40065.8952,39988.2066,MULTI-STOREY_CAR_PARK,ELECTRONIC_PARKING,WHOLE_DAY,NO,1,9,2.0,0,408.0,1.3779111716188173,103.94173943625098,PASIR RIS
BLK 734 PASIR RIS ST 72,39453.4352,40190.3477,OTHERS,ELECTRONIC_PARKING,WHOLE_DAY,NO,1,8,2.0,0,360.0,1.3797395060386952,103.9362361216368,PASIR RIS
BLK 118 RIVERVALE DR,35624.873,40823.859,OTHERS,ELECTRONIC_PARKING,WHOLE_DAY,NO,1,12,2.15,0,410.0,1.3854699982857868,103.90183385802828,SENGKANG
BLK 866A TAMPINES ST 83,39261.5396,37495.72,OTHERS,ELECTRONIC_PARKING,WHOLE_DAY,NO,1,1,2.15,1,526.0,1.3553703676578666,103.93451077983565,TAMPINES
BLK 548 WOODLANDS DR 44,23640.69,45832.6288,OTHERS,ELECTRONIC_PARKING,WHOLE_DAY,NO,1,6,2.15,0,482.0,1.4307681685236922,103.7941461022236,WOODLANDS
BLK 768 WOODLANDS AVE 6,24076.3392,47457.4236,OTHERS,ELECTRONIC_PARKING,WHOLE_DAY,NO,1,2,2.15,0,449.0,1.44546228493892,103.79806059150005,WOODLANDS
BLK 888A WOODLANDS DR 50,23752.5835,46647.3671,OTHERS,ELECTRONIC_PARKING,WHOLE_DAY,NO,1,7,2.15,0,482.0,1.4381363820727706,103.7951514476537,WOODLANDS
BLK 883A WOODLANDS ST 82,23295.7544,47198.0451,OTHERS,ELECTRONIC_PARKING,WHOLE_DAY,NO,1,8,2.15,0,457.0,1.443116440034946,103.79104630681421,WOODLANDS
BLK 174 PUNGGOL FIELD,36567.6957,42059.8507,MULTI-STOREY_CAR_PARK,ELECTRONIC_PARKING,WHOLE_DAY,SUN_&_PH_FR_7AM-10.30PM,1,7,2.15,0,401.0,1.3966475919363972,103.91030619395818,PUNGGOL
BLK 175 PUNGGOL FIELD,36383.4393,42222.0385,MULTI-STOREY_CAR_PARK,ELECTRONIC_PARKING,WHOLE_DAY,SUN_&_PH_FR_7AM-10.30PM,1,7,2.15,0,548.0,1.3981144128367327,103.90865055016069,PUNGGOL
BLK 137 EDGEDALE PLAINS,36467.5455,41586.9263,MULTI-STOREY_CAR_PARK,ELECTRONIC_PARKING,WHOLE_DAY,SUN_&_PH_FR_7AM-10.30PM,1,4,2.15,0,401.0,1.39237066672848,103.90940612733527,PUNGGOL
BLK 131 EDGEDALE PLAINS,36576.967,41721.609,MULTI-STOREY_CAR_PARK,ELECTRONIC_PARKING,WHOLE_DAY,SUN_&_PH_FR_7AM-10.30PM,1,4,2.15,0,401.0,1.3935886554890775,103.91038940445094,PUNGGOL
BLK 292 PUNGGOL CENTRAL,35982.6704,42695.5596,MULTI-STOREY_CAR_PARK,ELECTRONIC_PARKING,WHOLE_DAY,SUN_&_PH_FR_7AM-10.30PM,1,9,2.15,0,760.0,1.4023968775457822,103.90504945007196,PUNGGOL
BLK 171 EDGEDALE PLAINS,36821.298,41862.4746,MULTI-STOREY_CAR_PARK,ELECTRONIC_PARKING,WHOLE_DAY,SUN_&_PH_FR_7AM-10.30PM,1,10,2.15,0,401.0,1.3948625188764743,103.91258495275933,PUNGGOL
BLK 180 EDGEFIELD PLAINS,36463.3164,42276.7143,MULTI-STOREY_CAR_PARK,ELECTRONIC_PARKING,WHOLE_DAY,SUN_&_PH_FR_7AM-10.30PM,1,8,2.15,0,472.0,1.3986088574081823,103.90936832589145,PUNGGOL
BLK 642 PUNGGOL DRIVE,37244.6093,42288.7308,MULTI-STOREY_CAR_PARK,ELECTRONIC_PARKING,WHOLE_DAY,SUN_&_PH_FR_7AM-10.30PM,1,10,2.15,0,472.0,1.3987172907709295,103.9163888739785,PUNGGOL
BLK 162 PUNGGOL CENTRAL,37013.9934,41998.5248,MULTI-STOREY_CAR_PARK,ELECTRONIC_PARKING,WHOLE_DAY,SUN_&_PH_FR_7AM-10.30PM,1,10,2.15,0,472.0,1.396092847476143,103.91431651502327,PUNGGOL
"BLK 186-188,190-192 PUNGGOL CENTRAL",36545.1733,42395.6863,OTHERS,ELECTRONIC_PARKING,7AM-7PM,NO,0,2,2.15,1,472.0,1.3996847723542245,103.91010391091997,PUNGGOL
BLK 638 PUNGGOL DRIVE,37111.8432,42381.4517,MULTI-STOREY_CAR_PARK,ELECTRONIC_PARKING,WHOLE_DAY,SUN_&_PH_FR_7AM-10.30PM,1,10,2.15,0,472.0,1.3995558665879637,103.91519589302517,PUNGGOL
BLK 166 PUNGGOL CENTRAL,37141.8926,41874.4571,MULTI-STOREY_CAR_PARK,ELECTRONIC_PARKING,WHOLE_DAY,SUN_&_PH_FR_7AM-10.30PM,1,10,2.15,0,472.0,1.3949707847951467,103.9154657518681,PUNGGOL
BLK 644 PUNGGOL CENTRAL,37191.4597,42180.6537,MULTI-STOREY_CAR_PARK,ELECTRONIC_PARKING,WHOLE_DAY,SUN_&_PH_FR_7AM-10.30PM,1,4,2.1,0,472.0,1.3977398982918714,103.91591124799342,PUNGGOL
BLK 201 PUNGGOL FIELD,35831.2383,42404.7448,MULTI-STOREY_CAR_PARK,ELECTRONIC_PARKING,WHOLE_DAY,SUN_&_PH_FR_7AM-10.30PM,1,8,2.15,0,446.0,1.3997668965998609,103.90368863010565,PUNGGOL
BLK 178 & 193 EDGEFIELD PLAINS,36348.4338,42380.9942,OTHERS,ELECTRONIC_PARKING,7AM-7PM,NO,0,2,2.15,1,472.0,1.3995519599597015,103.90833604330294,PUNGGOL
BLK 172 EDGEDALE PLAINS,36731.4595,41935.1533,MULTI-STOREY_CAR_PARK,ELECTRONIC_PARKING,WHOLE_DAY,SUN_&_PH_FR_7AM-10.30PM,1,8,2.15,0,401.0,1.3955198255395462,103.91177770471042,PUNGGOL
BLK 650 PUNGGOL CENTRAL,37123.7973,42130.2229,MULTI-STOREY_CAR_PARK,ELECTRONIC_PARKING,WHOLE_DAY,SUN_&_PH_FR_7AM-10.30PM,1,4,2.15,0,472.0,1.3972838421569989,103.91530323143354,PUNGGOL
BLK 204 PUNGGOL FIELD,35762.7151,42260.5799,MULTI-STOREY_CAR_PARK,ELECTRONIC_PARKING,WHOLE_DAY,SUN_&_PH_FR_7AM-10.30PM,1,8,2.15,0,407.0,1.3984631405322812,103.90307285517704,PUNGGOL
BLK 194 PUNGGOL ROAD,36145.8836,42652.6976,MULTI-STOREY_CAR_PARK,ELECTRONIC_PARKING,WHOLE_DAY,SUN_&_PH_FR_7AM-10.30PM,1,10,2.15,0,445.0,1.4020092036707752,103.90651604233213,PUNGGOL
BLK 633 PUNGGOL DRIVE,36897.0646,42490.1374,OTHERS,ELECTRONIC_PARKING,7AM-10.30PM,NO,0,1,2.15,1,472.0,1.400538847013656,103.91326596736563,PUNGGOL
BLK 170D PUNGGOL EAST,36989.2194,41806.2447,OTHERS,ELECTRONIC_PARKING,7AM-10.30PM,NO,0,1,2.15,1,401.0,1.394353944737511,103.91409384167919,PUNGGOL
BLK 301 PUNGGOL CENTRAL,36110.4866,42837.2882,MULTI-STOREY_CAR_PARK,ELECTRONIC_PARKING,NO,NO,1,8,2.15,0,447.0,1.4036785832909147,103.90619802299027,PUNGGOL
BLK 302 PUNGGOL PLACE,35933.3863,42966.5081,MULTI-STOREY_CAR_PARK,ELECTRONIC_PARKING,NO,NO,1,10,2.15,0,477.0,1.4048472500172433,103.90460666624088,PUNGGOL
BLK 603 PUNGGOL ROAD,36309.071,42857.6068,MULTI-STOREY_CAR_PARK,ELECTRONIC_PARKING,WHOLE_DAY,SUN_&_PH_FR_7AM-10.30PM,1,10,2.15,0,466.0,1.403862280610026,103.90798247324133,PUNGGOL
BLK 602 PUNGGOL CENTRAL,36232.401,42775.4525,MULTI-STOREY_CAR_PARK,ELECTRONIC_PARKING,WHOLE_DAY,SUN_&_PH_FR_7AM-10.30PM,1,10,2.15,0,445.0,1.4031193293259538,103.90729350674667,PUNGGOL
BLK 305 PUNGGOL ROAD,36113.2644,43096.1637,OTHERS,ELECTRONIC_PARKING,WHOLE_DAY,NO,1,1,2.15,0,477.0,1.4060197574757536,103.9062230563652,PUNGGOL
BLK 614 EDGEFIELD PLAINS,36495.4409,42788.2417,MULTI-STOREY_CAR_PARK,ELECTRONIC_PARKING,WHOLE_DAY,SUN_&_PH_FR_7AM-10.30PM,1,13,2.15,0,466.0,1.4032349137543931,103.90965714004724,PUNGGOL
BLK 612 PUNGGOL DRIVE,36381.5675,42939.0974,MULTI-STOREY_CAR_PARK,ELECTRONIC_PARKING,WHOLE_DAY,SUN_&_PH_FR_7AM-10.30PM,1,12,2.15,0,466.0,1.4045992306191062,103.90863393763146,PUNGGOL
BLK 267 PUNGGOL FIELD,35192.9049,42872.8244,MULTI-STOREY_CAR_PARK,ELECTRONIC_PARKING,WHOLE_DAY,NO,1,3,2.15,0,423.0,1.4040002035818009,103.89795280345768,PUNGGOL
BLK 270 PUNGGOL FIELD,35326.1743,42841.9622,MULTI-STOREY_CAR_PARK,ELECTRONIC_PARKING,7AM-10.30PM,NO,0,2,2.15,0,242.0,1.4037210635186192,103.89915033137795,PUNGGOL
BLK 273 PUNGGOL PLACE,35636.9282,42723.6586,MULTI-STOREY_CAR_PARK,ELECTRONIC_PARKING,WHOLE_DAY,NO,1,2,2.15,0,452.0,1.4026510883226657,103.90194268043491,PUNGGOL
BLK 616 PUNGGOL DRIVE,36722.4823,42665.6779,MULTI-STOREY_CAR_PARK,ELECTRONIC_PARKING,7AM-10.30PM,NO,0,2,2.15,0,472.0,1.402126423994564,103.91169725663117,PUNGGOL
BLK 288 PUNGGOL PLACE,35765.2615,42620.0879,OTHERS,ELECTRONIC_PARKING,WHOLE_DAY,NO,1,1,2.15,0,417.0,1.4017143985503453,103.9030958327371,PUNGGOL
BLK 169 PUNGGOL FIELD,37034.4487,41726.1275,MULTI-STOREY_CAR_PARK,ELECTRONIC_PARKING,7AM-10.30PM,NO,0,2,2.15,0,401.0,1.393629380207694,103.91450023771422,PUNGGOL
BLK 624 PUNGGOL CENTRAL,36714.9868,42459.2349,OTHERS,ELECTRONIC_PARKING,7AM-10.30PM,NO,0,1,2.15,0,472.0,1.4002594317477919,103.91162984145231,PUNGGOL
BLK 207 PUNGGOL PLACE,35522.7156,42499.8392,MULTI-STOREY_CAR_PARK,ELECTRONIC_PARKING,7AM-10.30PM,NO,0,7,2.15,0,341.0,1.400626977614167,103.90091632843101,PUNGGOL
BLK 271 PUNGGOL WALK,35463.4411,42762.8004,OTHERS,ELECTRONIC_PARKING,7AM-10.30PM,NO,0,1,2.15,0,464.0,1.403005117906795,103.90038376648269,PUNGGOL
BLK 210 PUNGGOL PLACE,35464.3471,42355.1566,MULTI-STOREY_CAR_PARK,ELECTRONIC_PARKING,7AM-10.30PM,NO,0,11,2.15,0,259.0,1.3993185362463554,103.90039180280627,PUNGGOL
BLK 211 PUNGGOL WALK,35358.2193,42587.4444,MULTI-STOREY_CAR_PARK,ELECTRONIC_PARKING,7AM-10.30PM,NO,0,6,2.15,0,195.0,1.4014192894388875,103.89943821756714,PUNGGOL
BLK 213 PUNGGOL WALK,35273.4071,42431.6579,MULTI-STOREY_CAR_PARK,ELECTRONIC_PARKING,WHOLE_DAY,SUN_&_PH_FR_7AM-10.30PM,1,11,2.15,0,333.0,1.400010434777652,103.89867607165827,PUNGGOL
BLK 312 SUMANG LINK,35583.2467,43557.8383,MULTI-STOREY_CAR_PARK,ELECTRONIC_PARKING,WHOLE_DAY,SUN_&_PH_FR_7AM-10.30PM,1,13,2.15,0,385.0,1.4101951180886203,103.90146052684818,PUNGGOL
BLK 266 PUNGGOL WAY,35221.6263,43013.9553,MULTI-STOREY_CAR_PARK,ELECTRONIC_PARKING,WHOLE_DAY,NO,1,2,2.15,0,429.0,1.405276532646886,103.89821092418207,PUNGGOL
BLK 259 PUNGGOL FIELD,34902.6149,42928.77,MULTI-STOREY_CAR_PARK,ELECTRONIC_PARKING,WHOLE_DAY,SUN_&_PH_FR_7AM-10.30PM,1,14,2.15,0,497.0,1.404506226244788,103.89534432107786,PUNGGOL
BLK 261 PUNGGOL WAY,35069.2354,43028.1349,MULTI-STOREY_CAR_PARK,ELECTRONIC_PARKING,WHOLE_DAY,NO,1,11,2.15,0,363.0,1.4054048056345319,103.89684156866582,PUNGGOL
BLK 672 EDGEFIELD PLAINS,36726.0925,43212.3119,MULTI-STOREY_CAR_PARK,ELECTRONIC_PARKING,WHOLE_DAY,SUN_&_PH_FR_7AM-10.30PM,1,16,2.15,0,466.0,1.4070699794626313,103.91172986197323,PUNGGOL
BLK 665 PUNGGOL DRIVE,37055.2239,42642.9595,MULTI-STOREY_CAR_PARK,ELECTRONIC_PARKING,WHOLE_DAY,SUN_&_PH_FR_7AM-10.30PM,1,2,2.15,0,472.0,1.4019208645334207,103.91468720451994,PUNGGOL
663  PUNGGOL DRIVE,37289.3261,42421.1514,MULTI-STOREY_CAR_PARK,ELECTRONIC_PARKING,WHOLE_DAY,SUN_&_PH_FR_7AM-10.30PM,1,13,2.15,0,472.0,1.3999148394641896,103.91679073265178,PUNGGOL
BLK 308 PUNGGOL WALK,35282.797,43327.1927,OTHERS,ELECTRONIC_PARKING,WHOLE_DAY,NO,1,1,2.15,1,352.0,1.408109321653477,103.89876067269127,PUNGGOL
BLK 670 EDGEFIELD PLAINS,36896.1695,43074.4327,MULTI-STOREY_CAR_PARK,ELECTRONIC_PARKING,WHOLE_DAY,SUN_&_PH_FR_7AM-10.30PM,1,14,2.15,0,466.0,1.4058229986447526,103.91325810351456,PUNGGOL
BLK 678 PUNGGOL DRIVE,36410.0435,43106.6938,MULTI-STOREY_CAR_PARK,ELECTRONIC_PARKING,WHOLE_DAY,NO,1,2,2.15,0,447.0,1.4061149025133133,103.90888986674689,PUNGGOL
BLK 256 SUMANG WALK,34923.1009,43042.4085,MULTI-STOREY_CAR_PARK,ELECTRONIC_PARKING,WHOLE_DAY,SUN_&_PH_FR_7AM-10.30PM,1,12,2.15,0,300.0,1.4055339264168498,103.89552843195224,PUNGGOL
BLK 677 PUNGGOL DRIVE,36486.8089,43065.2274,MULTI-STOREY_CAR_PARK,ELECTRONIC_PARKING,WHOLE_DAY,NO,1,2,2.15,0,466.0,1.4057398730818174,103.9095796556182,PUNGGOL
BLK 676 PUNGGOL DRIVE,36557.4238,43015.7992,MULTI-STOREY_CAR_PARK,ELECTRONIC_PARKING,WHOLE_DAY,NO,1,3,2.15,0,466.0,1.4052928416984594,103.91021417456238,PUNGGOL
BLK 310 PUNGGOL WALK,35389.8621,43509.9902,OTHERS,ELECTRONIC_PARKING,WHOLE_DAY,NO,1,1,2.15,0,352.0,1.409762447924623,103.89972278958646,PUNGGOL
BLK 121 EDGEDALE PLAINS,36352.1816,41721.0087,MULTI-STOREY_CAR_PARK,ELECTRONIC_PARKING,WHOLE_DAY,SUN_&_PH_FR_7AM-10.30PM,1,11,2.15,0,401.0,1.3935832922158469,103.9083695310196,PUNGGOL
BLK 314 PUNGGOL WAY,35143.9937,43367.4988,MULTI-STOREY_CAR_PARK,ELECTRONIC_PARKING,WHOLE_DAY,SUN_&_PH_FR_7AM-10.30PM,1,2,2.15,0,403.0,1.4084738701672708,103.89751341807985,PUNGGOL
BLK 217 SUMANG WALK,34935.4135,42745.609,MULTI-STOREY_CAR_PARK,ELECTRONIC_PARKING,WHOLE_DAY,NO,1,16,2.15,0,370.0,1.402849777146735,103.8956389998498,PUNGGOL
BLK 661 EDGEDALE PLAINS,37380.9995,42710.8525,MULTI-STOREY_CAR_PARK,ELECTRONIC_PARKING,WHOLE_DAY,SUN_&_PH_FR_7AM-10.30PM,1,13,2.15,0,472.0,1.4025347595532838,103.91761458579194,PUNGGOL
BLK 226 SUMANG LANE,34673.3293,42770.8483,MULTI-STOREY_CAR_PARK,ELECTRONIC_PARKING,WHOLE_DAY,NO,1,2,2.15,0,383.0,1.403078094080514,103.89328396343744,PUNGGOL
BLK 682 EDGEDALE PLAINS EDGEDALE PLAINS,37178.9151,42875.7489,MULTI-STOREY_CAR_PARK,ELECTRONIC_PARKING,WHOLE_DAY,SUN_&_PH_FR_7AM-10.30PM,1,16,2.15,0,472.0,1.4040260868198657,103.91579874451504,PUNGGOL
BLK 222 SUMANG LANE SUMANG LANE,34784.0419,42552.2276,MULTI-STOREY_CAR_PARK,COUPON_PARKING,WHOLE_DAY,SUN_&_PH_FR_7AM-10.30PM,1,13,2.15,0,750.0,1.401100942346659,103.89427875623967,PUNGGOL
BLK 233 SUMANG LANE,34486.264,42569.8371,MULTI-STOREY_CAR_PARK,COUPON_PARKING,WHOLE_DAY,SUN_&_PH_FR_7AM-10.30PM,1,7,2.15,0,650.0,1.4012602647548869,103.89160298259335,PUNGGOL
BLK 325 SUMANG WALK,35281.7517,43917.728,MULTI-STOREY_CAR_PARK,ELECTRONIC_PARKING,WHOLE_DAY,SUN_&_PH_FR_7AM-10.30PM,1,15,2.15,0,403.0,1.4134499069115283,103.8987514289573,PUNGGOL
BLK 326 SUMANG WALK SUMANG WALK,35345.9447,43901.2419,MULTI-STOREY_CAR_PARK,ELECTRONIC_PARKING,WHOLE_DAY,SUN_&_PH_FR_7AM-10.30PM,1,6,2.15,0,352.0,1.413300796243428,103.89932825423637,PUNGGOL
BLK 659 PUNGGOL EAST ROAD,37596.6187,42542.5155,MULTI-STOREY_CAR_PARK,ELECTRONIC_PARKING,WHOLE_DAY,SUN_&_PH_FR_7AM-10.30PM,1,14,2.15,0,472.0,1.401012310975492,103.91955204475866,PUNGGOL
BLK 322 SUMANG WALK,35143.0392,43671.1572,MULTI-STOREY_CAR_PARK,ELECTRONIC_PARKING,WHOLE_DAY,SUN_&_PH_FR_7AM-10.30PM,1,13,2.15,0,403.0,1.4112200458616646,103.89750491628354,PUNGGOL
BLK 407A-407B NORTHSHORE WALK,35655.2525,44286.5897,MULTI-STOREY_CAR_PARK,ELECTRONIC_PARKING,WHOLE_DAY,NO,1,2,2.15,0,352.0,1.4167856591181158,103.9021077540444,PUNGGOL
BLK 421A NORTHSHORE DRIVE,35919.5379,44619.0472,OTHERS,ELECTRONIC_PARKING,WHOLE_DAY,NO,1,4,2.15,1,352.0,1.4197922102831946,103.90448268138053,PUNGGOL
473A PASIR RIS DR 6,41720.207,39587.085,MULTI-STOREY_CAR_PARK,ELECTRONIC_PARKING,WHOLE_DAY,SUN_&_PH_FR_7AM-10.30PM,1,12,2.15,0,422.0,1.374282852405605,103.95660442487535,PASIR RIS
BLK 204A PASIR RIS STREET 21,42373.461,38753.7772,MULTI-STOREY_CAR_PARK,ELECTRONIC_PARKING,7AM-10.30PM,SUN_&_PH_FR_7AM-10.30PM,0,10,1.9,0,422.0,1.3667464214739593,103.96247396456343,PASIR RIS
BLK 269A PASIR RIS STREET 21,42482.8751,38537.8136,MULTI-STOREY_CAR_PARK,ELECTRONIC_PARKING,WHOLE_DAY,SUN_&_PH_FR_7AM-10.30PM,1,8,1.9,0,416.0,1.3647932754078957,103.96345701840376,PASIR RIS
BLK 272A PASIR RIS STREET 21,42657.807,38550.2316,MULTI-STOREY_CAR_PARK,ELECTRONIC_PARKING,WHOLE_DAY,SUN_&_PH_FR_7AM-10.30PM,1,6,1.9,0,416.0,1.3649054929788302,103.96502890331404,PASIR RIS
BLK 199A PASIR RIS STREET 12,42053.3726,38723.5879,MULTI-STOREY_CAR_PARK,ELECTRONIC_PARKING,WHOLE_DAY,SUN_&_PH_FR_7AM-10.30PM,1,12,1.9,0,422.0,1.3664735547775337,103.95959774167476,PASIR RIS
BLK 180A PASIR RIS STREET 11,42109.8791,38528.4122,MULTI-STOREY_CAR_PARK,ELECTRONIC_PARKING,WHOLE_DAY,SUN_&_PH_FR_7AM-10.30PM,1,12,1.9,0,405.0,1.3647084328267176,103.96010539790755,PASIR RIS
BLK 158A PASIR RIS STREET 13,42284.7957,38467.7932,MULTI-STOREY_CAR_PARK,ELECTRONIC_PARKING,WHOLE_DAY,SUN_&_PH_FR_7AM-10.30PM,1,10,2.0,0,405.0,1.3641601337238647,103.96167711032825,PASIR RIS
BLK 149A PASIR RIS STREET 13,42400.9355,38268.6092,MULTI-STOREY_CAR_PARK,ELECTRONIC_PARKING,WHOLE_DAY,SUN_&_PH_FR_7AM-10.30PM,1,10,2.0,0,369.0,1.3623587330477753,103.96272060688607,PASIR RIS
BLK 142A PASIR RIS STREET 11,42071.2657,38321.6853,MULTI-STOREY_CAR_PARK,ELECTRONIC_PARKING,WHOLE_DAY,SUN_&_PH_FR_7AM-10.30PM,1,10,2.0,0,405.0,1.362838891434807,103.95975833337505,PASIR RIS
BLK 135A PASIR RIS STREET 11,41750.9103,38533.7141,MULTI-STOREY_CAR_PARK,ELECTRONIC_PARKING,WHOLE_DAY,SUN_&_PH_FR_7AM-10.30PM,1,8,2.0,0,405.0,1.3647565501015353,103.95687982769061,PASIR RIS
BLK 108A PASIR RIS STREET 12,41766.7964,38887.5806,MULTI-STOREY_CAR_PARK,ELECTRONIC_PARKING,WHOLE_DAY,SUN_&_PH_FR_7AM-10.30PM,1,12,2.0,0,422.0,1.367956777555038,103.95702273852463,PASIR RIS
BLK 220A PASIR RIS STREET 21,42210.8365,39121.6128,MULTI-STOREY_CAR_PARK,ELECTRONIC_PARKING,WHOLE_DAY,SUN_&_PH_FR_7AM-10.30PM,1,10,1.9,0,422.0,1.37007306561966,103.96101285046079,PASIR RIS
BLK 526 PASIR RIS STREET 51,40702.1342,38896.9108,MULTI-STOREY_CAR_PARK,ELECTRONIC_PARKING,WHOLE_DAY,NO,1,13,2.15,0,436.0,1.3680416334135912,103.94745603169594,PASIR RIS
BLK 530 PASIR RIS DR 1,40920.1747,39245.8244,MULTI-STOREY_CAR_PARK,ELECTRONIC_PARKING,NO,NO,1,15,2.15,0,406.0,1.3711969823159367,103.94941542540188,PASIR RIS
BLK 555A PASIR RIS STREET 51,41231.6084,38954.5238,MULTI-STOREY_CAR_PARK,ELECTRONIC_PARKING,WHOLE_DAY,SUN_&_PH_FR_7AM-10.30PM,1,10,2.0,0,422.0,1.3685624312364921,103.95221374215554,PASIR RIS
BLK 564A PASIR RIS STREET 51,40930.0174,38967.7033,MULTI-STOREY_CAR_PARK,ELECTRONIC_PARKING,WHOLE_DAY,SUN_&_PH_FR_7AM-10.30PM,1,11,2.0,0,422.0,1.3686817553022461,103.9495037477118,PASIR RIS
BLK 561A PASIR RIS STREET 51,41131.632,38802.2291,MULTI-STOREY_CAR_PARK,ELECTRONIC_PARKING,WHOLE_DAY,SUN_&_PH_FR_7AM-10.30PM,1,8,2.0,0,422.0,1.3671851799114267,103.9513153189911,PASIR RIS
BLK 500A PASIR RIS STREET 52,40496.5258,39820.0373,MULTI-STOREY_CAR_PARK,ELECTRONIC_PARKING,WHOLE_DAY,NO,1,13,1.9,0,506.0,1.3763901312097686,103.94560888980419,PASIR RIS
BLK 521A PASIR RIS STREET 52,40316.681,39541.0967,MULTI-STOREY_CAR_PARK,ELECTRONIC_PARKING,WHOLE_DAY,SUN_&_PH_FR_7AM-10.30PM,1,11,1.9,0,449.0,1.373867572894938,103.94399274023216,PASIR RIS
BLK 578A PASIR RIS STREET 53,40606.3885,39551.3513,MULTI-STOREY_CAR_PARK,ELECTRONIC_PARKING,WHOLE_DAY,SUN_&_PH_FR_7AM-10.30PM,1,11,2.0,0,324.0,1.373960188897794,103.9465959696924,PASIR RIS
BLK 586A PASIR RIS STREET 53,40736.5955,39633.1743,MULTI-STOREY_CAR_PARK,ELECTRONIC_PARKING,WHOLE_DAY,SUN_&_PH_FR_7AM-10.30PM,1,10,2.0,0,420.0,1.3747001092714635,103.9477660061047,PASIR RIS
BLK 601A ELIAS ROAD,40247.7753,39924.3544,MULTI-STOREY_CAR_PARK,ELECTRONIC_PARKING,WHOLE_DAY,SUN_&_PH_FR_7AM-10.30PM,1,10,1.9,0,410.0,1.3773336408343004,103.94337373293396,PASIR RIS
