,address,x_coord,y_coord,car_park_type,type_of_parking_system,short_term_parking,free_parking,night_parking,car_park_decks,gantry_height,car_park_basement,car_park_lots,latitude,longitude,planning_area,ev_charging_slow
0,BLK 270/271 ALBERT CENTRE BASEMENT CAR PARK,30314.7936,31490.4942,OTHERS,ELECTRONIC_PARKING,WHOLE_DAY,NO,1,1,1.8,1,82,1.301063272,103.854118,ROCHOR,10.0
1,BLK 98A ALJUNIED CRESCENT,33758.4143,33695.5198,MULTI-STOREY_CAR_PARK,ELECTRONIC_PARKING,WHOLE_DAY,SUN_&_PH_FR_7AM-10.30PM,1,5,2.1,0,315,1.32100429,103.8850609,GEYLANG,3.0
2,BLK 227 ANG MO KIO ST 23,28777.0707,38973.9528,MULTI-STOREY_CAR_PARK,ELECTRONIC_PARKING,WHOLE_DAY,NO,1,6,2.15,0,225,1.368741095,103.8403011,ANG MO KIO,3.0
3,BLK 256A ANG MO KIO STREET 21,28267.0582,39151.8344,MULTI-STOREY_CAR_PARK,ELECTRONIC_PARKING,WHOLE_DAY,SUN_&_PH_FR_7AM-10.30PM,1,2,2.15,0,115,1.370349801,103.8357183,ANG MO KIO,3.0
4,BLK 308C ANG MO KIO AVE 1,29257.6457,38619.9953,MULTI-STOREY_CAR_PARK,ELECTRONIC_PARKING,7AM-10.30PM,NO,0,3,2.15,0,454,1.365540013,103.8446194,ANG MO KIO,3.0
5,BLK 260 ANG MO KIO ST 21,28134.9305,38989.9965,MULTI-STOREY_CAR_PARK,ELECTRONIC_PARKING,WHOLE_DAY,SUN_&_PH_FR_7AM-10.30PM,1,6,2.15,0,225,1.368886198,103.834531,ANG MO KIO,3.0
6,BLK 309B ANG MO KIO ST 31,29421.1502,38526.8611,MULTI-STOREY_CAR_PARK,ELECTRONIC_PARKING,WHOLE_DAY,SUN_&_PH_FR_7AM-10.30PM,1,12,2.15,0,606,1.364697733,103.8460886,ANG MO KIO,3.0
7,BLK 316B ANG MO KIO STREET 31,29595.2539,38514.7606,MULTI-STOREY_CAR_PARK,ELECTRONIC_PARKING,WHOLE_DAY,SUN_&_PH_FR_7AM-10.30PM,1,12,2.15,0,463,1.364588291,103.847653,ANG MO KIO,3.0
8,BLK 255A ANG MO KIO ST 21,28117.7689,39172.0389,MULTI-STOREY_CAR_PARK,ELECTRONIC_PARKING,WHOLE_DAY,NO,1,2,2.15,0,91,1.370532524,103.8343768,ANG MO KIO,3.0
9,BLK 455 ANG MO KIO ST 44,30669.2379,38959.5487,MULTI-STOREY_CAR_PARK,ELECTRONIC_PARKING,WHOLE_DAY,SUN_&_PH_FR_7AM-10.30PM,1,7,2.15,0,460,1.368610719,103.8573035,ANG MO KIO,3.0
10,BLK 588 ANG MO KIO STREET 52,30234.4145,39354.0323,MULTI-STOREY_CAR_PARK,ELECTRONIC_PARKING,WHOLE_DAY,NO,1,5,2.15,0,408,1.372178323,103.8533964,ANG MO KIO,3.0
11,BLK 700 ANG MO KIO AVE 6,29489.025,39103.7605,MULTI-STOREY_CAR_PARK,ELECTRONIC_PARKING,WHOLE_DAY,SUN_&_PH_FR_7AM-10.30PM,1,12,2.15,0,337,1.369915002,103.8466985,ANG MO KIO,3.0
12,BLK 590 ANG MO KIO ST 51,30201.236,39274.274,MULTI-STOREY_CAR_PARK,ELECTRONIC_PARKING,WHOLE_DAY,SUN_&_PH_FR_7AM-10.30PM,1,12,2.15,0,549,1.37145702,103.8530982,ANG MO KIO,3.0
13,BLK 596 ANG MO KIO STREEET 52,30004.2224,39370.6063,MULTI-STOREY_CAR_PARK,ELECTRONIC_PARKING,WHOLE_DAY,SUN_&_PH_FR_7AM-10.30PM,1,12,2.15,0,567,1.372328229,103.8513279,ANG MO KIO,3.0
14,BLK 130A ANG MO KIO ST 12,28950.7223,39184.6976,MULTI-STOREY_CAR_PARK,ELECTRONIC_PARKING,WHOLE_DAY,SUN_&_PH_FR_7AM-10.30PM,1,4,2.15,0,425,1.37064699,103.8418615,ANG MO KIO,3.0
15,BLK 132A ANG MO KIO ST 12,28960.3285,39294.4158,MULTI-STOREY_CAR_PARK,ELECTRONIC_PARKING,WHOLE_DAY,SUN_&_PH_FR_7AM-10.30PM,1,4,2.15,0,230,1.371639242,103.8419478,ANG MO KIO,3.0
16,BLK 352A ANG MO KIO STREET 32,29961.0968,38457.9118,MULTI-STOREY_CAR_PARK,ELECTRONIC_PARKING,WHOLE_DAY,SUN_&_PH_FR_7AM-10.30PM,1,12,2.15,0,644,1.364074149,103.8509404,ANG MO KIO,3.0
17,BLK 2A DOVER ROAD,22474.205,31687.9608,MULTI-STOREY_CAR_PARK,ELECTRONIC_PARKING,WHOLE_DAY,SUN_&_PH_FR_7AM-10.30PM,1,10,2.15,0,196,1.302848684,103.7836668,QUEENSTOWN,3.0
18,BLK 28 DOVER CRESCENT,22252.486,31896.9749,MULTI-STOREY_CAR_PARK,ELECTRONIC_PARKING,WHOLE_DAY,SUN_&_PH_FR_7AM-10.30PM,1,16,2.15,0,696,1.304738893,103.7816745,QUEENSTOWN,3.0
19,BLK 19A DOVER CRESCENT,22562.8641,32184.9758,MULTI-STOREY_CAR_PARK,ELECTRONIC_PARKING,WHOLE_DAY,SUN_&_PH_FR_7AM-10.30PM,1,12,2.15,0,506,1.307343527,103.7844633,QUEENSTOWN,3.0
20,BLK 12A DOVER CLOSE EAST,22643.9533,31900.5591,MULTI-STOREY_CAR_PARK,ELECTRONIC_PARKING,WHOLE_DAY,SUN_&_PH_FR_7AM-10.30PM,1,7,2.15,0,295,1.304771377,103.785192,QUEENSTOWN,3.0
21,BLK 347A ANG MO KIO AVENUE 3,29735.5099,38818.5301,MULTI-STOREY_CAR_PARK,ELECTRONIC_PARKING,WHOLE_DAY,SUN_&_PH_FR_7AM-10.30PM,1,10,1.9,0,544,1.367335466,103.8489133,ANG MO KIO,3.0
22,BLK 712A ANG MO KIO AVE 3/6,29508.9218,39208.8091,MULTI-STOREY_CAR_PARK,ELECTRONIC_PARKING,WHOLE_DAY,SUN_&_PH_FR_7AM-10.30PM,1,14,1.8,0,870,1.370865023,103.8468773,ANG MO KIO,3.0
23,BLK 613A ANG MO KIO AVENUE 4,28613.8871,39995.2242,MULTI-STOREY_CAR_PARK,ELECTRONIC_PARKING,WHOLE_DAY,NO,1,9,2.0,0,308,1.377977112,103.8388348,ANG MO KIO,3.0
24,BLK 104C ANG MO KIO STREET 11,28556.1477,39318.8058,MULTI-STOREY_CAR_PARK,ELECTRONIC_PARKING,WHOLE_DAY,SUN_&_PH_FR_7AM-10.30PM,1,10,2.0,0,234,1.371859827,103.838316,ANG MO KIO,3.0
25,BLK 323A ANG MO KIO AVENUE 3,29612.0323,38838.7824,MULTI-STOREY_CAR_PARK,ELECTRONIC_PARKING,WHOLE_DAY,SUN_&_PH_FR_7AM-10.30PM,1,12,2.15,0,670,1.367518628,103.8478038,ANG MO KIO,3.0
26,106 BIDADARI PARK DRIVE,32171.1116,35094.0857,MULTI-STOREY_CAR_PARK,ELECTRONIC_PARKING,WHOLE_DAY,SUN_&_PH_FR_7AM-10.30PM,1,8,2.15,0,363,1.33365268,103.8707984,TOA PAYOH,3.0
27,BLK 117 ALKAFF CRESCENT,32444.5217,35453.6678,MULTI-STOREY_CAR_PARK,ELECTRONIC_PARKING,WHOLE_DAY,SUN_&_PH_FR_7AM-10.30PM,1,8,2.15,0,425,1.336904573,103.8732552,TOA PAYOH,3.0
28,BLK 101 BIDADARI PARK DRIVE,32225.0311,35371.0933,MULTI-STOREY_CAR_PARK,ELECTRONIC_PARKING,WHOLE_DAY,NO,1,2,2.2,0,445,1.33615783,103.8712829,TOA PAYOH,3.0
29,BLK 113 ALKAFF CRESCENT,32410.3926,35271.7364,MULTI-STOREY_CAR_PARK,ELECTRONIC_PARKING,WHOLE_DAY,NO,1,8,2.15,0,432,1.335259256,103.8729485,TOA PAYOH,3.0
30,BLK 188A BUKIT BATOK WEST AVE 6,18213.6562,36507.8169,MULTI-STOREY_CAR_PARK,ELECTRONIC_PARKING,WHOLE_DAY,SUN_&_PH_FR_7AM-10.30PM,1,10,2.0,0,401,1.346436654,103.7453823,BUKIT BATOK,3.0
31,BLK 628A BUKIT BATOK CENTRAL,18714.471,36997.6927,MULTI-STOREY_CAR_PARK,ELECTRONIC_PARKING,WHOLE_DAY,SUN_&_PH_FR_7AM-10.30PM,1,11,2.15,0,369,1.350867071,103.7498822,BUKIT BATOK,3.0
32,BLK 289H BUKIT BATOK STREET 25,19831.2917,36294.3127,MULTI-STOREY_CAR_PARK,ELECTRONIC_PARKING,WHOLE_DAY,SUN_&_PH_FR_7AM-10.30PM,1,12,2.15,0,379,1.344506283,103.7599178,BUKIT BATOK,3.0
33,BLK 288H BUKIT BATOK STREET 25,19860.3631,36409.798,MULTI-STOREY_CAR_PARK,ELECTRONIC_PARKING,WHOLE_DAY,SUN_&_PH_FR_7AM-10.30PM,1,13,2.15,0,379,1.345550698,103.760179,BUKIT BATOK,3.0
34,BLK 290H BUKIT BATOK STREET 24,19610.472,36154.6192,MULTI-STOREY_CAR_PARK,ELECTRONIC_PARKING,WHOLE_DAY,SUN_&_PH_FR_7AM-10.30PM,1,4,2.0,0,412,1.343242885,103.7579336,BUKIT BATOK,3.0
35,BLK 291F BUKIT BATOK STREET 24,19289.8168,36112.2533,MULTI-STOREY_CAR_PARK,ELECTRONIC_PARKING,WHOLE_DAY,SUN_&_PH_FR_7AM-10.30PM,1,4,2.0,0,412,1.342859652,103.7550523,BUKIT BATOK,3.0
36,BLK 154A BUKIT BATOK WEST AVE 8,18025.9428,36609.4062,MULTI-STOREY_CAR_PARK,ELECTRONIC_PARKING,WHOLE_DAY,SUN_&_PH_FR_7AM-10.30PM,1,8,2.0,0,176,1.347355328,103.7436955,BUKIT BATOK,3.0
37,BLK 622A BUKIT BATOK CENTRAL,18561.8095,36898.4253,MULTI-STOREY_CAR_PARK,ELECTRONIC_PARKING,WHOLE_DAY,NO,1,6,2.15,0,320,1.349969285,103.7485105,BUKIT BATOK,3.0
38,BLK 395A BUKIT BATOK WEST AVE 5,18924.8161,38652.2819,MULTI-STOREY_CAR_PARK,ELECTRONIC_PARKING,WHOLE_DAY,SUN_&_PH_FR_7AM-10.30PM,1,16,2.15,0,1594,1.365830635,103.7517718,BUKIT BATOK,3.0
39,BLK 135A BISHAN STREET 12,30026.4687,36336.1338,MULTI-STOREY_CAR_PARK,ELECTRONIC_PARKING,WHOLE_DAY,SUN_&_PH_FR_7AM-10.30PM,1,5,1.9,0,250,1.344885541,103.8515276,BISHAN,3.0
40,BLK 167A BISHAN STREET 13,30460.9446,36576.481,MULTI-STOREY_CAR_PARK,ELECTRONIC_PARKING,WHOLE_DAY,SUN_&_PH_FR_7AM-10.30PM,1,5,1.9,0,416,1.347059123,103.8554317,BISHAN,3.0
41,BLK 152A BISHAN STREET 11,30394.9029,36366.7901,MULTI-STOREY_CAR_PARK,ELECTRONIC_PARKING,WHOLE_DAY,SUN_&_PH_FR_7AM-10.30PM,1,6,1.9,0,416,1.345162758,103.8548382,BISHAN,3.0
42,BLK 505 BISHAN STREET 11,29707.8648,36779.0905,MULTI-STOREY_CAR_PARK,ELECTRONIC_PARKING,WHOLE_DAY,SUN_&_PH_FR_7AM-10.30PM,1,9,1.9,0,450,1.348891504,103.8486648,BISHAN,3.0
43,BLK 514 BISHAN STREET 13,29830.0702,36912.2681,MULTI-STOREY_CAR_PARK,ELECTRONIC_PARKING,WHOLE_DAY,NO,1,2,1.8,0,561,1.350095907,103.8497629,BISHAN,3.0
44,BLK 207A BISHAN STREET 23,29668.2541,37471.6058,MULTI-STOREY_CAR_PARK,ELECTRONIC_PARKING,WHOLE_DAY,SUN_&_PH_FR_7AM-10.30PM,1,5,1.9,0,545,1.355154368,103.8483089,BISHAN,3.0
45,BLK 212A BISHAN STREET 23,29704.1126,37637.6725,MULTI-STOREY_CAR_PARK,ELECTRONIC_PARKING,WHOLE_DAY,SUN_&_PH_FR_7AM-10.30PM,1,5,1.9,0,545,1.356656214,103.8486311,BISHAN,3.0
46,BLK 410A SIN MING AVE,28240.0745,38359.6695,MULTI-STOREY_CAR_PARK,ELECTRONIC_PARKING,WHOLE_DAY,SUN_&_PH_FR_7AM-10.30PM,1,9,2.1,0,225,1.363185745,103.8354758,BISHAN,3.0
47,BLK 231A BISHAN STREET 23,29460.8559,37726.9889,MULTI-STOREY_CAR_PARK,ELECTRONIC_PARKING,WHOLE_DAY,SUN_&_PH_FR_7AM-10.30PM,1,5,1.9,0,546,1.357463972,103.8464453,BISHAN,3.0
48,BLK 237A BISHAN STREET 22,29486.1335,37915.7452,MULTI-STOREY_CAR_PARK,ELECTRONIC_PARKING,WHOLE_DAY,SUN_&_PH_FR_7AM-10.30PM,1,5,1.9,0,568,1.359171016,103.8466725,BISHAN,3.0
49,BLK 246A BISHAN STREET 22,29146.6066,38113.6749,MULTI-STOREY_CAR_PARK,ELECTRONIC_PARKING,WHOLE_DAY,SUN_&_PH_FR_7AM-10.30PM,1,5,1.85,0,568,1.360961036,103.8436216,BISHAN,3.0
50,BLK 282 BISHAN STREET 22,29235.553,37787.1371,MULTI-STOREY_CAR_PARK,ELECTRONIC_PARKING,WHOLE_DAY,SUN_&_PH_FR_7AM-10.30PM,1,2,1.95,0,546,1.358007941,103.8444208,BISHAN,3.0
51,BLK 263A BISHAN STREET 22,28962.9515,37918.5499,MULTI-STOREY_CAR_PARK,ELECTRONIC_PARKING,7AM-10.30PM,SUN_&_PH_FR_7AM-10.30PM,0,10,1.9,0,568,1.359196402,103.8419713,BISHAN,3.0
52,BLK 268A BISHAN STREET 24,29037.3835,37710.0917,MULTI-STOREY_CAR_PARK,ELECTRONIC_PARKING,WHOLE_DAY,SUN_&_PH_FR_7AM-10.30PM,1,10,1.9,0,507,1.357311178,103.8426402,BISHAN,3.0
53,BLK 290A BISHAN STREET 24,29249.7223,37516.6532,MULTI-STOREY_CAR_PARK,ELECTRONIC_PARKING,WHOLE_DAY,SUN_&_PH_FR_7AM-10.30PM,1,12,2.15,0,507,1.355561781,103.8445481,BISHAN,3.0
54,BLK 448A BRIGHT HILL DRIVE,27812.0967,37767.5494,MULTI-STOREY_CAR_PARK,ELECTRONIC_PARKING,WHOLE_DAY,SUN_&_PH_FR_7AM-10.30PM,1,10,2.15,0,300,1.357830822,103.8316301,BISHAN,3.0
55,BLK 275 BISHAN ST 24,29152.4171,37599.2039,MULTI-STOREY_CAR_PARK,ELECTRONIC_PARKING,7AM-10.30PM,NO,0,6,2.15,0,507,1.356308344,103.8436738,BISHAN,3.0
56,BLK 259B BANGKIT ROAD,21344.6326,39972.0102,OTHERS,ELECTRONIC_PARKING,WHOLE_DAY,NO,1,15,2.15,0,591,1.377766424,103.7735152,BUKIT PANJANG,10.0
57,BLK 259A BANGKIT ROAD,21374.3071,39941.9395,MULTI-STOREY_CAR_PARK,ELECTRONIC_PARKING,7AM-10.30PM,NO,0,1,3.0,0,591,1.377494482,103.7737819,BUKIT PANJANG,3.0
58,BLK 259A BANGKIT ROAD,21356.3257,39943.2707,MULTI-STOREY_CAR_PARK,ELECTRONIC_PARKING,WHOLE_DAY,SUN_&_PH_FR_7AM-10.30PM,1,10,1.9,0,591,1.377506517,103.7736203,BUKIT PANJANG,3.0
59,BLK 401A FAJAR ROAD,20836.1138,40357.2456,MULTI-STOREY_CAR_PARK,ELECTRONIC_PARKING,WHOLE_DAY,SUN_&_PH_FR_7AM-10.30PM,1,5,1.9,0,554,1.381250233,103.7689457,BUKIT PANJANG,3.0
60,BLK 453A FAJAR ROAD,21145.4428,40760.7142,MULTI-STOREY_CAR_PARK,ELECTRONIC_PARKING,WHOLE_DAY,SUN_&_PH_FR_7AM-10.30PM,1,10,2.15,0,491,1.38489913,103.7717252,BUKIT PANJANG,3.0
61,BLK 449A BUKIT PANJANG RING ROAD,21253.8552,40640.1785,MULTI-STOREY_CAR_PARK,ELECTRONIC_PARKING,WHOLE_DAY,SUN_&_PH_FR_7AM-10.30PM,1,10,2.15,0,491,1.383809074,103.7726994,BUKIT PANJANG,3.0
62,BLK 442A FAJAR ROAD,21059.217,40510.9727,MULTI-STOREY_CAR_PARK,ELECTRONIC_PARKING,WHOLE_DAY,SUN_&_PH_FR_7AM-10.30PM,1,10,2.15,0,497,1.382640538,103.7709504,BUKIT PANJANG,3.0
63,BLK 170A LOMPANG ROAD,20457.7599,40100.1252,MULTI-STOREY_CAR_PARK,ELECTRONIC_PARKING,WHOLE_DAY,NO,1,12,2.15,0,672,1.378924834,103.765546,BUKIT PANJANG,3.0
64,BLK 505A JELAPANG ROAD,20695.6095,40765.0345,MULTI-STOREY_CAR_PARK,ELECTRONIC_PARKING,WHOLE_DAY,SUN_&_PH_FR_7AM-10.30PM,1,12,2.15,0,760,1.384938092,103.7676831,BUKIT PANJANG,3.0
65,BLK 510A JELAPANG ROAD,20839.8705,40996.2639,MULTI-STOREY_CAR_PARK,ELECTRONIC_PARKING,WHOLE_DAY,SUN_&_PH_FR_7AM-10.30PM,1,12,2.15,0,700,1.387029282,103.7689793,BUKIT PANJANG,3.0
66,BLK 513A JELAPANG ROAD,20672.7922,41096.8488,MULTI-STOREY_CAR_PARK,ELECTRONIC_PARKING,7AM-10.30PM,SUN_&_PH_FR_7AM-10.30PM,0,2,2.15,0,100,1.387938894,103.767478,BUKIT PANJANG,3.0
67,BLK 518A JELAPANG ROAD,20612.4337,40944.82,MULTI-STOREY_CAR_PARK,ELECTRONIC_PARKING,WHOLE_DAY,SUN_&_PH_FR_7AM-10.30PM,1,12,2.15,0,368,1.386563986,103.7669356,BUKIT PANJANG,3.0
68,BLK 234A BUKIT PANJANG RING ROAD,21177.2481,40121.6311,MULTI-STOREY_CAR_PARK,ELECTRONIC_PARKING,WHOLE_DAY,SUN_&_PH_FR_7AM-10.30PM,1,12,2.15,0,591,1.379119502,103.7720111,BUKIT PANJANG,3.0
69,BLK 517A JELAPANG ROAD,20565.9376,41081.058,MULTI-STOREY_CAR_PARK,ELECTRONIC_PARKING,WHOLE_DAY,SUN_&_PH_FR_7AM-10.30PM,1,2,2.15,0,142,1.387796061,103.7665178,BUKIT PANJANG,3.0
70,BLK 521A JELAPANG ROAD,20498.7021,40997.6232,MULTI-STOREY_CAR_PARK,ELECTRONIC_PARKING,WHOLE_DAY,SUN_&_PH_FR_7AM-10.30PM,1,2,2.15,0,137,1.38704149,103.7659137,BUKIT PANJANG,3.0
71,BLK 525A JELAPANG ROAD,20434.7146,40912.3617,MULTI-STOREY_CAR_PARK,ELECTRONIC_PARKING,WHOLE_DAY,SUN_&_PH_FR_7AM-10.30PM,1,2,2.15,0,385,1.386270399,103.7653387,BUKIT PANJANG,3.0
72,BLK 529A JELAPANG ROAD,20361.9478,40819.6691,MULTI-STOREY_CAR_PARK,ELECTRONIC_PARKING,WHOLE_DAY,SUN_&_PH_FR_7AM-10.30PM,1,12,2.15,0,344,1.385432102,103.7646849,BUKIT PANJANG,3.0
73,BLK 533A BUKIT PANJANG RING ROAD,20221.922,40787.0081,MULTI-STOREY_CAR_PARK,ELECTRONIC_PARKING,WHOLE_DAY,SUN_&_PH_FR_7AM-10.30PM,1,7,2.15,0,218,1.385136691,103.7634266,BUKIT PANJANG,3.0
74,BLK 537A BUKIT PANJANG RING ROAD,20158.8662,40686.9514,MULTI-STOREY_CAR_PARK,ELECTRONIC_PARKING,WHOLE_DAY,SUN_&_PH_FR_7AM-10.30PM,1,7,2.15,0,556,1.384231798,103.7628601,BUKIT PANJANG,3.0
75,BLK 541A BUKIT PANJANG RING ROAD,20163.4889,40531.4817,MULTI-STOREY_CAR_PARK,ELECTRONIC_PARKING,WHOLE_DAY,SUN_&_PH_FR_7AM-10.30PM,1,11,2.15,0,652,1.382825788,103.7629016,BUKIT PANJANG,3.0
76,BLK 152A GANGSA ROAD,20447.5641,39722.7569,MULTI-STOREY_CAR_PARK,ELECTRONIC_PARKING,WHOLE_DAY,SUN_&_PH_FR_7AM-10.30PM,1,12,2.15,0,511,1.37551205,103.7654545,BUKIT PANJANG,3.0
77,BLK 163A GANGSA ROAD,20317.5802,39878.586,MULTI-STOREY_CAR_PARK,ELECTRONIC_PARKING,WHOLE_DAY,SUN_&_PH_FR_7AM-10.30PM,1,12,2.15,0,511,1.376921278,103.7642864,BUKIT PANJANG,3.0
78,BLK 603A SENJA ROAD,20027.2654,40409.2626,MULTI-STOREY_CAR_PARK,ELECTRONIC_PARKING,WHOLE_DAY,SUN_&_PH_FR_7AM-10.30PM,1,12,2.15,0,502,1.381720446,103.7616776,BUKIT PANJANG,3.0
79,BLK 177A LOMPANG ROAD,20395.5322,40290.7701,MULTI-STOREY_CAR_PARK,ELECTRONIC_PARKING,WHOLE_DAY,NO,1,9,2.15,0,501,1.380648941,103.7649868,BUKIT PANJANG,3.0
80,BLK 180A LOMPANG ROAD,20397.9729,40073.9347,MULTI-STOREY_CAR_PARK,ELECTRONIC_PARKING,WHOLE_DAY,NO,1,8,2.15,0,511,1.378687961,103.7650088,BUKIT PANJANG,3.0
81,BLK 651A SENJA LINK,20352.8446,41013.5834,MULTI-STOREY_CAR_PARK,ELECTRONIC_PARKING,WHOLE_DAY,SUN_&_PH_FR_7AM-10.30PM,1,6,2.15,0,665,1.38718579,103.764603,BUKIT PANJANG,3.0
82,BLK 611A/613A/615A/616A BUKIT PANJANG RING ROAD/SENJA ROAD,20006.0358,40760.5616,MULTI-STOREY_CAR_PARK,ELECTRONIC_PARKING,WHOLE_DAY,SUN_&_PH_FR_7AM-10.30PM,1,6,2.15,0,1479,1.38489746,103.7614868,BUKIT PANJANG,3.0
83,BLK 225A PETIR ROAD MSCP,21295.8798,39665.1802,MULTI-STOREY_CAR_PARK,ELECTRONIC_PARKING,WHOLE_DAY,SUN_&_PH_FR_7AM-10.30PM,1,5,1.9,0,591,1.374991553,103.7730772,BUKIT PANJANG,3.0
84,BLK 468A SEGAR ROAD,21363.991,41123.9328,MULTI-STOREY_CAR_PARK,ELECTRONIC_PARKING,WHOLE_DAY,SUN_&_PH_FR_7AM-10.30PM,1,10,2.15,0,491,1.388183998,103.7736889,BUKIT PANJANG,3.0
85,BLK 181A JELEBU ROAD,20226.0907,40152.4974,MULTI-STOREY_CAR_PARK,ELECTRONIC_PARKING,WHOLE_DAY,NO,1,12,2.15,0,511,1.379398409,103.7634643,BUKIT PANJANG,3.0
86,BLK 185A JELEBU ROAD,20134.1254,40120.981,MULTI-STOREY_CAR_PARK,ELECTRONIC_PARKING,WHOLE_DAY,NO,1,12,2.15,0,320,1.379113361,103.7626379,BUKIT PANJANG,3.0
87,BLK 480A SEGAR ROAD,21168.4806,41302.9377,MULTI-STOREY_CAR_PARK,ELECTRONIC_PARKING,WHOLE_DAY,SUN_&_PH_FR_7AM-10.30PM,1,5,2.15,0,367,1.389802808,103.7719321,BUKIT PANJANG,3.0
88,BLK 476A SEGAR ROAD,21342.9805,41219.4493,MULTI-STOREY_CAR_PARK,ELECTRONIC_PARKING,WHOLE_DAY,SUN_&_PH_FR_7AM-10.30PM,1,7,2.15,0,367,1.389047809,103.7735001,BUKIT PANJANG,3.0
89,BLK 625A SENJA ROAD,19927.0486,40913.764,MULTI-STOREY_CAR_PARK,ELECTRONIC_PARKING,WHOLE_DAY,SUN_&_PH_FR_7AM-10.30PM,1,13,2.15,0,604,1.386282945,103.760777,BUKIT PANJANG,3.0
90,BLK 629A SENJA ROAD,19723.7125,40870.4549,MULTI-STOREY_CAR_PARK,ELECTRONIC_PARKING,WHOLE_DAY,SUN_&_PH_FR_7AM-10.30PM,1,14,2.15,0,540,1.385891216,103.7589498,BUKIT PANJANG,3.0
91,BLK 455A SEGAR ROAD,21095.0855,41051.008,MULTI-STOREY_CAR_PARK,ELECTRONIC_PARKING,WHOLE_DAY,SUN_&_PH_FR_7AM-10.30PM,1,8,2.15,0,491,1.38752443,103.7712726,BUKIT PANJANG,3.0
92,BLK 488A SEGAR ROAD,21094.1509,41309.8258,MULTI-STOREY_CAR_PARK,ELECTRONIC_PARKING,WHOLE_DAY,SUN_&_PH_FR_7AM-10.30PM,1,10,2.15,0,367,1.389865084,103.7712642,BUKIT PANJANG,3.0
93,BLK 217A PETIR ROAD MSCP,21443.7871,39574.4888,MULTI-STOREY_CAR_PARK,ELECTRONIC_PARKING,WHOLE_DAY,SUN_&_PH_FR_7AM-10.30PM,1,5,1.9,0,591,1.374171406,103.7744063,BUKIT PANJANG,3.0
94,BLK 547 SEGAR ROAD,20897.8022,41135.8221,MULTI-STOREY_CAR_PARK,ELECTRONIC_PARKING,WHOLE_DAY,SUN_&_PH_FR_7AM-10.30PM,1,9,2.15,0,421,1.38829141,103.7694999,BUKIT PANJANG,3.0
95,BLK 548 SEGAR ROAD,20712.1138,41213.883,MULTI-STOREY_CAR_PARK,ELECTRONIC_PARKING,WHOLE_DAY,SUN_&_PH_FR_7AM-10.30PM,1,8,2.15,0,470,1.388997319,103.7678313,BUKIT PANJANG,3.0
96,BLK 443 FAJAR ROAD,20985.8418,40364.4597,MULTI-STOREY_CAR_PARK,ELECTRONIC_PARKING,WHOLE_DAY,SUN_&_PH_FR_7AM-10.30PM,1,12,2.15,0,611,1.381315511,103.7702911,BUKIT PANJANG,3.0
97,BLK 632 SENJA ROAD,19702.7354,40739.1965,MULTI-STOREY_CAR_PARK,ELECTRONIC_PARKING,NO,SUN_&_PH_FR_7AM-10.30PM,1,9,2.15,0,227,1.384704157,103.7587614,BUKIT PANJANG,3.0
98,BLK 634 SENJA ROAD,19584.9139,40909.9744,MULTI-STOREY_CAR_PARK,ELECTRONIC_PARKING,WHOLE_DAY,SUN_&_PH_FR_7AM-10.30PM,1,10,2.15,0,434,1.386248576,103.7577026,BUKIT PANJANG,3.0
99,BLK 636 SENJA ROAD,19616.1105,41031.7585,MULTI-STOREY_CAR_PARK,ELECTRONIC_PARKING,WHOLE_DAY,SUN_&_PH_FR_7AM-10.30PM,1,10,2.15,0,648,1.387349956,103.7579829,BUKIT PANJANG,3.0
100,BLK 422A FAJAR ROAD,20950.1385,40814.0823,MULTI-STOREY_CAR_PARK,ELECTRONIC_PARKING,WHOLE_DAY,SUN_&_PH_FR_7AM-10.30PM,1,12,2.15,0,491,1.385381725,103.7699702,BUKIT PANJANG,3.0
101,BLK 678 PERUMAL ROAD,30448.766,32767.6002,MULTI-STOREY_CAR_PARK,ELECTRONIC_PARKING,WHOLE_DAY,SUN_&_PH_FR_7AM-10.30PM,1,11,1.9,0,326,1.312612957,103.855322,KALLANG,3.0
102,BLK 6A BOON KENG ROAD,31121.6383,33283.2558,MULTI-STOREY_CAR_PARK,ELECTRONIC_PARKING,WHOLE_DAY,SUN_&_PH_FR_7AM-10.30PM,1,10,2.0,0,282,1.317276303,103.8613681,KALLANG,3.0
103,BLK 10 BENDEMEER ROAD,31076.0824,33087.5529,MULTI-STOREY_CAR_PARK,ELECTRONIC_PARKING,WHOLE_DAY,NO,1,7,2.15,0,286,1.31550644,103.8609587,KALLANG,3.0
104,BLK 257A BOON LAY DRIVE,14004.6897,36456.5691,MULTI-STOREY_CAR_PARK,ELECTRONIC_PARKING,WHOLE_DAY,SUN_&_PH_FR_7AM-10.30PM,1,10,1.9,0,390,1.34597152,103.7075622,JURONG WEST,3.0
105,BLK 268 BOON LAY DRIVE,14024.5648,36666.6301,MULTI-STOREY_CAR_PARK,ELECTRONIC_PARKING,WHOLE_DAY,SUN_&_PH_FR_7AM-10.30PM,1,10,2.15,0,190,1.347871241,103.7077407,JURONG WEST,3.0
106,BLK 208A BOON LAY PLACE,14768.3178,36520.4472,MULTI-STOREY_CAR_PARK,ELECTRONIC_PARKING,WHOLE_DAY,SUN_&_PH_FR_7AM-10.30PM,1,10,2.15,0,450,1.346549556,103.7144238,JURONG WEST,3.0
107,BLK 212A BOON LAY PLACE,14648.3419,36766.7841,MULTI-STOREY_CAR_PARK,ELECTRONIC_PARKING,WHOLE_DAY,SUN_&_PH_FR_7AM-10.30PM,1,10,2.15,0,430,1.348777281,103.7133457,JURONG WEST,3.0
108,180 BOON LAY DRIVE,14072.9303,36691.7296,MULTI-STOREY_CAR_PARK,ELECTRONIC_PARKING,WHOLE_DAY,SUN_&_PH_FR_7AM-10.30PM,1,5,2.15,0,381,1.348098254,103.7081753,JURONG WEST,3.0
109,183 BOON LAY AVENUE,14206.3144,36819.8339,MULTI-STOREY_CAR_PARK,ELECTRONIC_PARKING,WHOLE_DAY,SUN_&_PH_FR_7AM-10.30PM,1,10,2.15,0,300,1.349256843,103.7093738,JURONG WEST,3.0
110,196 BOON LAY DR,14693.2928,36077.4814,MULTI-STOREY_CAR_PARK,ELECTRONIC_PARKING,WHOLE_DAY,SUN_&_PH_FR_7AM-10.30PM,1,12,2.15,0,358,1.342543506,103.7137499,JURONG WEST,3.0
111,216 BOON LAY AVE,14451.8262,36853.4082,MULTI-STOREY_CAR_PARK,ELECTRONIC_PARKING,WHOLE_DAY,SUN_&_PH_FR_7AM-10.30PM,1,16,2.15,0,595,1.349560589,103.7115798,JURONG WEST,3.0
112,BLK 126A BUKIT MERAH VIEW,26866.0055,29672.9702,MULTI-STOREY_CAR_PARK,ELECTRONIC_PARKING,WHOLE_DAY,SUN_&_PH_FR_7AM-10.30PM,1,11,1.9,0,543,1.284626289,103.8231292,BUKIT MERAH,3.0
113,BLK 163 BUKIT MERAH CENTRAL,26194.9184,29563.3295,OTHERS,ELECTRONIC_PARKING,WHOLE_DAY,NO,1,1,2.0,1,266,1.283634706,103.8170992,BUKIT MERAH,10.0
114,BLK 119 BUKIT MERAH CENTRAL,26136.5799,29432.235,MULTI-STOREY_CAR_PARK,ELECTRONIC_PARKING,WHOLE_DAY,SUN_&_PH_FR_7AM-10.30PM,1,10,1.9,0,266,1.28244913,103.816575,BUKIT MERAH,3.0
115,BLKS 167-169 JALAN BUKIT MERAH,26367.6248,29465.267,MULTI-STOREY_CAR_PARK,ELECTRONIC_PARKING,WHOLE_DAY,NO,1,14,1.9,0,360,1.282747873,103.8186511,BUKIT MERAH,3.0
116,BLK 35A JALAN RUMAH TINGGI,25288.5551,30009.2384,MULTI-STOREY_CAR_PARK,ELECTRONIC_PARKING,WHOLE_DAY,SUN_&_PH_FR_7AM-10.30PM,1,0,2.15,0,330,1.287667284,103.8089551,BUKIT MERAH,3.0
117,BLK 665 BUFFALO ROAD BASEMENT CAR PARK,29921.7021,32043.75,OTHERS,ELECTRONIC_PARKING,WHOLE_DAY,NO,1,1,1.8,1,148,1.306066749,103.850586,ROCHOR,10.0
118,BLK 39 BENDEMEER ROAD,31656.358,33667.0566,MULTI-STOREY_CAR_PARK,ELECTRONIC_PARKING,WHOLE_DAY,SUN_&_PH_FR_7AM-10.30PM,1,4,2.15,0,415,1.320747202,103.8661729,KALLANG,3.0
119,BLK 112A WHAMPOA ROAD,30605.3384,34301.5549,MULTI-STOREY_CAR_PARK,ELECTRONIC_PARKING,WHOLE_DAY,SUN_&_PH_FR_7AM-10.30PM,1,11,2.0,0,253,1.326485488,103.856729,NOVENA,3.0
120,BLK 32A JALAN BAHAGIA,30711.6128,34245.0049,MULTI-STOREY_CAR_PARK,ELECTRONIC_PARKING,WHOLE_DAY,SUN_&_PH_FR_7AM-10.30PM,1,12,2.0,0,253,1.32597406,103.8576839,NOVENA,3.0
121,BLK 98A WHAMPOA DRIVE,30374.6768,33753.3566,MULTI-STOREY_CAR_PARK,ELECTRONIC_PARKING,WHOLE_DAY,SUN_&_PH_FR_7AM-10.30PM,1,7,2.0,0,285,1.321527795,103.8546563,NOVENA,3.0
122,BLK 85A WHAMPOA DRIVE,30532.4552,33886.3275,MULTI-STOREY_CAR_PARK,ELECTRONIC_PARKING,WHOLE_DAY,SUN_&_PH_FR_7AM-10.30PM,1,2,2.1,0,285,1.322730324,103.856074,NOVENA,3.0
123,BLK 19A JALAN TENTERAM,30912.1514,34418.5838,MULTI-STOREY_CAR_PARK,ELECTRONIC_PARKING,WHOLE_DAY,SUN_&_PH_FR_7AM-10.30PM,1,13,2.0,0,334,1.327543828,103.8594859,NOVENA,3.0
124,BLK 116 JALAN TENTERAM,31102.1822,34445.0449,MULTI-STOREY_CAR_PARK,ELECTRONIC_PARKING,WHOLE_DAY,SUN_&_PH_FR_7AM-10.30PM,1,6,2.15,0,376,1.327783114,103.8611934,NOVENA,3.0
125,BLK 78A LORONG LIMAU,30457.6666,34068.0647,MULTI-STOREY_CAR_PARK,ELECTRONIC_PARKING,WHOLE_DAY,NO,1,12,2.15,0,306,1.324373897,103.855402,NOVENA,3.0
126,BLK 2B BOON TIONG ROAD,27996.7913,29911.548,MULTI-STOREY_CAR_PARK,ELECTRONIC_PARKING,WHOLE_DAY,SUN_&_PH_FR_7AM-10.30PM,1,12,2.15,0,356,1.286783924,103.8332897,BUKIT MERAH,3.0
127,BLK 8C BOON TIONG RD,27590.7177,29931.3587,MULTI-STOREY_CAR_PARK,ELECTRONIC_PARKING,WHOLE_DAY,SUN_&_PH_FR_7AM-10.30PM,1,12,2.15,0,494,1.286963082,103.829641,BUKIT MERAH,3.0
128,BLK 11A BOON TIONG ROAD,27485.7966,29859.2793,MULTI-STOREY_CAR_PARK,ELECTRONIC_PARKING,WHOLE_DAY,NO,1,10,2.15,0,430,1.28631122,103.8286983,BUKIT MERAH,3.0
129,BLK 129A BUKIT MERAH VIEW,26893.4354,29547.635,MULTI-STOREY_CAR_PARK,ELECTRONIC_PARKING,WHOLE_DAY,SUN_&_PH_FR_7AM-10.30PM,1,10,2.15,0,456,1.283492803,103.8233757,BUKIT MERAH,3.0
130,BLK 2A JLN BUKIT MERAH,25037.7298,29927.4975,MULTI-STOREY_CAR_PARK,ELECTRONIC_PARKING,WHOLE_DAY,NO,1,7,2.15,0,330,1.286928026,103.8067014,BUKIT MERAH,3.0
131,BLK 431 BEDOK NORTH ROAD,39040.5507,34603.0432,MULTI-STOREY_CAR_PARK,ELECTRONIC_PARKING,WHOLE_DAY,NO,1,8,2.15,0,313,1.329210148,103.932524,BEDOK,3.0
132,BLK 187 BEDOK NORTH ST 4,39944.1477,34766.4678,MULTI-STOREY_CAR_PARK,ELECTRONIC_PARKING,WHOLE_DAY,NO,1,8,2.15,0,854,1.330687758,103.9406434,BEDOK,3.0
133,BLK 547C BEDOK NORTH AVENUE 1,38287.6513,34686.6961,OTHERS,ELECTRONIC_PARKING,WHOLE_DAY,NO,1,1,2.8,1,309,1.329966938,103.9257588,BEDOK,10.0
134,BLK 208A NEW UPPER CHANGI ROAD,38858.3585,34156.6609,MULTI-STOREY_CAR_PARK,ELECTRONIC_PARKING,WHOLE_DAY,NO,1,8,2.15,0,515,1.325173296,103.9308867,BEDOK,3.0
135,BLK 154 BEDOK SOUTH ROAD,40577.3467,33351.3208,MULTI-STOREY_CAR_PARK,ELECTRONIC_PARKING,WHOLE_DAY,NO,1,7,2.15,0,340,1.317889438,103.9463324,BEDOK,3.0
136,BLK 637A BEDOK RESERVOIR ROAD,35903.9044,34750.8852,MULTI-STOREY_CAR_PARK,ELECTRONIC_PARKING,WHOLE_DAY,SUN_&_PH_FR_7AM-10.30PM,1,12,1.9,0,584,1.330548155,103.9043396,BEDOK,3.0
137,BLK 649A JALAN TENAGA,36132.6219,34913.1736,MULTI-STOREY_CAR_PARK,ELECTRONIC_PARKING,WHOLE_DAY,SUN_&_PH_FR_7AM-10.30PM,1,6,1.9,0,310,1.332015772,103.9063948,BEDOK,3.0
138,BLK 10A BEDOK SOUTH AVENUE 2,39530.0381,33861.6257,MULTI-STOREY_CAR_PARK,COUPON_PARKING,WHOLE_DAY,SUN_&_PH_FR_7AM-10.30PM,1,10,1.9,0,452,1.32250486,103.936922,BEDOK,3.0
139,BLK 94A BEDOK NORTH AVENUE 4,40091.8567,35069.2759,MULTI-STOREY_CAR_PARK,ELECTRONIC_PARKING,WHOLE_DAY,SUN_&_PH_FR_7AM-10.30PM,1,10,1.9,0,370,1.333426184,103.9419707,BEDOK,3.0
140,BLK 29C CHAI CHEE AVENUE,38125.3637,34059.3926,MULTI-STOREY_CAR_PARK,ELECTRONIC_PARKING,WHOLE_DAY,SUN_&_PH_FR_7AM-10.30PM,1,10,2.0,0,248,1.324293889,103.9243004,BEDOK,3.0
141,BLK 660A JALAN TENAGA,36243.3489,35174.2762,MULTI-STOREY_CAR_PARK,ELECTRONIC_PARKING,WHOLE_DAY,SUN_&_PH_FR_7AM-10.30PM,1,10,2.0,0,379,1.33437706,103.9073898,BEDOK,3.0
142,BLK 651A JALAN TENAGA,36196.3322,34965.864,MULTI-STOREY_CAR_PARK,ELECTRONIC_PARKING,WHOLE_DAY,SUN_&_PH_FR_7AM-10.30PM,1,9,2.0,0,378,1.332492268,103.9069672,BEDOK,3.0
143,BLK 671A JALAN DAMAI,36428.7057,35005.0793,MULTI-STOREY_CAR_PARK,ELECTRONIC_PARKING,WHOLE_DAY,SUN_&_PH_FR_7AM-10.30PM,1,8,2.0,0,365,1.332846853,103.9090553,BEDOK,3.0
144,BLK 613C BEDOK RESERVOIR ROAD,37379.8318,35029.8453,MULTI-STOREY_CAR_PARK,ELECTRONIC_PARKING,WHOLE_DAY,SUN_&_PH_FR_7AM-10.30PM,1,12,2.15,0,327,1.333070548,103.9176017,BEDOK,3.0
145,BLK 761A BEDOK RESERVOIR VIEW,39251.41,35342.7343,MULTI-STOREY_CAR_PARK,ELECTRONIC_PARKING,WHOLE_DAY,SUN_&_PH_FR_7AM-10.30PM,1,9,2.15,0,314,1.335899564,103.934419,BEDOK,3.0
146,BLK 765A BEDOK RESERVOIR VIEW,39464.4992,35319.6825,MULTI-STOREY_CAR_PARK,ELECTRONIC_PARKING,WHOLE_DAY,SUN_&_PH_FR_7AM-10.30PM,1,9,2.15,0,397,1.335691012,103.9363337,BEDOK,3.0
147,BLK 769A BEDOK RESERVOIR VIEW,39692.6527,35310.6109,MULTI-STOREY_CAR_PARK,ELECTRONIC_PARKING,WHOLE_DAY,SUN_&_PH_FR_7AM-10.30PM,1,9,2.15,0,397,1.335608885,103.9383838,BEDOK,3.0
148,BLK 772A BEDOK RESERVOIR VIEW,39583.9006,35439.6773,MULTI-STOREY_CAR_PARK,ELECTRONIC_PARKING,WHOLE_DAY,SUN_&_PH_FR_7AM-10.30PM,1,12,2.15,0,397,1.336776155,103.9374066,BEDOK,3.0
149,BLK 739A BEDOK RESERVOIR ROAD,38020.7204,35604.61,MULTI-STOREY_CAR_PARK,ELECTRONIC_PARKING,WHOLE_DAY,SUN_&_PH_FR_7AM-10.30PM,1,6,2.15,0,292,1.338268305,103.9233606,BEDOK,3.0
150,BLK 30A NEW UPPER CHANGI ROAD,39309.7384,33939.7118,MULTI-STOREY_CAR_PARK,ELECTRONIC_PARKING,WHOLE_DAY,SUN_&_PH_FR_7AM-10.30PM,1,11,2.15,0,622,1.323211124,103.9349426,BEDOK,3.0
151,BLK 21A CHAI CHEE ROAD,37899.5392,34299.8988,MULTI-STOREY_CAR_PARK,ELECTRONIC_PARKING,WHOLE_DAY,SUN_&_PH_FR_7AM-10.30PM,1,12,2.15,0,212,1.326469014,103.9222713,BEDOK,3.0
152,BLK 215A BEDOK CENTRAL,39227.6155,34273.0906,MULTI-STOREY_CAR_PARK,ELECTRONIC_PARKING,WHOLE_DAY,NO,1,12,2.15,0,551,1.32622611,103.9342048,BEDOK,3.0
153,BLK 184 BEDOK NORTH RD,40023.6834,34256.9953,MULTI-STOREY_CAR_PARK,ELECTRONIC_PARKING,WHOLE_DAY,SUN_&_PH_FR_7AM-10.30PM,1,6,2.15,0,559,1.326080246,103.9413578,BEDOK,3.0
154,BLK 114A BEDOK NORTH ST 2,39379.4586,34770.0381,MULTI-STOREY_CAR_PARK,ELECTRONIC_PARKING,WHOLE_DAY,SUN_&_PH_FR_7AM-10.30PM,1,4,2.15,0,160,1.330720263,103.9355693,BEDOK,3.0
155,BLK 13A BEDOK SOUTH RD,39449.3971,33644.4324,MULTI-STOREY_CAR_PARK,COUPON_PARKING,WHOLE_DAY,SUN_&_PH_FR_7AM-10.30PM,1,4,2.15,0,258,1.320540674,103.9361973,BEDOK,3.0
156,BLK 34A BED0K SOUTH AVE 2,39683.2391,33835.9985,MULTI-STOREY_CAR_PARK,ELECTRONIC_PARKING,WHOLE_DAY,SUN_&_PH_FR_7AM-10.30PM,1,2,2.15,0,250,1.322273039,103.9382986,BEDOK,3.0
157,BLK 116A BEDOK NORTH ROAD,39568.2194,34796.4641,MULTI-STOREY_CAR_PARK,ELECTRONIC_PARKING,WHOLE_DAY,SUN_&_PH_FR_7AM-10.30PM,1,7,2.15,0,287,1.330959179,103.9372655,BEDOK,3.0
158,BLK 35A BEDOK SOUTH AVE 2,39831.9791,33865.2621,MULTI-STOREY_CAR_PARK,ELECTRONIC_PARKING,WHOLE_DAY,SUN_&_PH_FR_7AM-10.30PM,1,2,2.15,0,180,1.322537631,103.9396351,BEDOK,3.0
159,BLK 630 BEDOK RESERVOIR ROAD,37007.0862,34999.621,OTHERS,ELECTRONIC_PARKING,WHOLE_DAY,NO,1,1,2.15,1,51,1.332797324,103.9142523,BEDOK,10.0
160,BLK 2A BEDOK SOUTH AVE 1,39197.6251,33772.3265,MULTI-STOREY_CAR_PARK,ELECTRONIC_PARKING,WHOLE_DAY,SUN_&_PH_FR_7AM-10.30PM,1,6,2.15,0,757,1.321697394,103.9339351,BEDOK,3.0
161,BLK 19A BEDOK SOUTH ROAD,39224.3984,33631.2777,MULTI-STOREY_CAR_PARK,ELECTRONIC_PARKING,WHOLE_DAY,SUN_&_PH_FR_7AM-10.30PM,1,8,2.15,0,430,1.320421791,103.9341756,BEDOK,3.0
162,BLK 513A BEDOK NORTH AVE 2,38688.1313,34940.2851,MULTI-STOREY_CAR_PARK,ELECTRONIC_PARKING,WHOLE_DAY,SUN_&_PH_FR_7AM-10.30PM,1,7,2.15,0,438,1.332260166,103.9293574,BEDOK,3.0
163,BLK 220 BEDOK CENTRAL,39325.3283,34194.2403,MULTI-STOREY_CAR_PARK,ELECTRONIC_PARKING,WHOLE_DAY,NO,1,13,2.15,0,329,1.32551298,103.9350827,BEDOK,3.0
164,BLK 219 BEDOK CENTRAL,39088.1581,34133.7804,MULTI-STOREY_CAR_PARK,ELECTRONIC_PARKING,WHOLE_DAY,NO,1,11,2.15,0,515,1.32496629,103.9329516,BEDOK,3.0
165,BLK 714A BEDOK RESERVOIR ROAD,38037.1417,35371.0192,MULTI-STOREY_CAR_PARK,ELECTRONIC_PARKING,WHOLE_DAY,SUN_&_PH_FR_7AM-10.30PM,1,6,2.15,0,325,1.33615579,103.9235081,BEDOK,3.0
166,BLK 748 BEDOK RESERVOIR CRESCENT,37860.0561,35362.5681,MULTI-STOREY_CAR_PARK,ELECTRONIC_PARKING,WHOLE_DAY,NO,1,7,2.15,0,308,1.336079419,103.9219169,BEDOK,3.0
167,BLK 807 CHAI CHEE ROAD,37954.0727,34412.5835,MULTI-STOREY_CAR_PARK,ELECTRONIC_PARKING,WHOLE_DAY,NO,1,5,2.15,0,510,1.327488075,103.9227613,BEDOK,3.0
168,BLK 88 TANGLIN HALT RD,24092.2494,31574.3039,MULTI-STOREY_CAR_PARK,ELECTRONIC_PARKING,WHOLE_DAY,SUN_&_PH_FR_7AM-10.30PM,1,5,2.15,0,466,1.301821057,103.7982057,QUEENSTOWN,3.0
169,309 CHOA CHU KANG AVE 4,18254.4236,40780.2921,OTHERS,ELECTRONIC_PARKING,WHOLE_DAY,NO,1,1,2.1,1,315,1.385075363,103.7457472,CHOA CHU KANG,10.0
170,BLK 84A COMMONWEALTH CLOSE,24269.3904,31777.7395,MULTI-STOREY_CAR_PARK,COUPON_PARKING,WHOLE_DAY,SUN_&_PH_FR_7AM-10.30PM,1,10,2.15,0,466,1.303660879,103.7997973,QUEENSTOWN,3.0
171,BLK 11 CHAI CHEE ROAD,38194.9297,34332.7592,OTHERS,ELECTRONIC_PARKING,WHOLE_DAY,SUN_&_PH_FR_7AM-10.30PM,1,2,2.15,1,134,1.326766094,103.9249255,BEDOK,10.0
172,BLK 54 C'WEALTH DR,23934.8536,31553.8887,MULTI-STOREY_CAR_PARK,ELECTRONIC_PARKING,WHOLE_DAY,SUN_&_PH_FR_7AM-10.30PM,1,11,2.15,0,466,1.301636409,103.7967914,QUEENSTOWN,3.0
173,BLK 429A CHOA CHU KANG AVENUE 4,17706.6149,40616.7716,MULTI-STOREY_CAR_PARK,ELECTRONIC_PARKING,WHOLE_DAY,SUN_&_PH_FR_7AM-10.30PM,1,10,2.0,0,350,1.383596356,103.7408248,CHOA CHU KANG,3.0
174,BLK 625A CHOA CHU KANG STREET 62,18365.515,42251.984,MULTI-STOREY_CAR_PARK,ELECTRONIC_PARKING,WHOLE_DAY,NO,1,11,2.15,0,301,1.398384838,103.7467449,CHOA CHU KANG,3.0
175,BLK 445A CHOA CHU KANG AVE 4,17241.061,40350.4217,MULTI-STOREY_CAR_PARK,ELECTRONIC_PARKING,WHOLE_DAY,SUN_&_PH_FR_7AM-10.30PM,1,10,2.15,0,350,1.381187418,103.7366415,CHOA CHU KANG,3.0
176,BLK 474A CHOA CHU KANG AVE 3,17384.4024,40068.5078,MULTI-STOREY_CAR_PARK,ELECTRONIC_PARKING,WHOLE_DAY,SUN_&_PH_FR_7AM-10.30PM,1,12,2.15,0,326,1.378637946,103.7379297,CHOA CHU KANG,3.0
177,BLK 450A CHOA CHU KANG AVE 4,17135.7982,40142.8636,MULTI-STOREY_CAR_PARK,ELECTRONIC_PARKING,WHOLE_DAY,SUN_&_PH_FR_7AM-10.30PM,1,11,2.15,0,350,1.379310301,103.7356957,CHOA CHU KANG,3.0
178,BLK 462A CHOA CHU KANG AVE 4,17141.5616,39946.6052,MULTI-STOREY_CAR_PARK,ELECTRONIC_PARKING,WHOLE_DAY,SUN_&_PH_FR_7AM-10.30PM,1,10,2.15,0,338,1.377535415,103.7357476,CHOA CHU KANG,3.0
179,BLK 483A CHOA CHU KANG AVE 5,17288.8253,39773.897,MULTI-STOREY_CAR_PARK,ELECTRONIC_PARKING,WHOLE_DAY,SUN_&_PH_FR_7AM-10.30PM,1,12,2.15,0,298,1.37597356,103.7370709,CHOA CHU KANG,3.0
180,BLK 486A CHOA CHU KANG AVE 5,17432.5108,39671.7658,MULTI-STOREY_CAR_PARK,ELECTRONIC_PARKING,WHOLE_DAY,SUN_&_PH_FR_7AM-10.30PM,1,12,2.15,0,535,1.375049975,103.7383621,CHOA CHU KANG,3.0
181,BLK 297B CHOA CHU KANG AVE 2,17981.6699,39927.7497,MULTI-STOREY_CAR_PARK,ELECTRONIC_PARKING,WHOLE_DAY,SUN_&_PH_FR_7AM-10.30PM,1,9,2.15,0,303,1.377365192,103.7432966,CHOA CHU KANG,3.0
182,BLK 227A CHOA CHU KANG CENTRAL,18219.6466,40274.898,MULTI-STOREY_CAR_PARK,ELECTRONIC_PARKING,WHOLE_DAY,SUN_&_PH_FR_7AM-10.30PM,1,10,2.0,0,326,1.380504753,103.7454349,CHOA CHU KANG,3.0
183,BLK 287A CHOA CHU KANG AVENUE 2,17822.7967,40079.0923,MULTI-STOREY_CAR_PARK,ELECTRONIC_PARKING,WHOLE_DAY,SUN_&_PH_FR_7AM-10.30PM,1,12,2.0,0,326,1.378733823,103.7418689,CHOA CHU KANG,3.0
184,BLK 343A CHOA CHU KANG LOOP,18276.2056,40644.1197,MULTI-STOREY_CAR_PARK,ELECTRONIC_PARKING,WHOLE_DAY,NO,1,11,1.9,0,315,1.383843877,103.745943,CHOA CHU KANG,3.0
185,BLK 276A CHOA CHU KANG AVENUE 2,18079.0694,40228.4669,MULTI-STOREY_CAR_PARK,ELECTRONIC_PARKING,WHOLE_DAY,SUN_&_PH_FR_7AM-10.30PM,1,10,2.0,0,326,1.3800848,103.7441717,CHOA CHU KANG,3.0
186,BLK 118A TECK WHYE LANE,18725.4974,40162.9532,MULTI-STOREY_CAR_PARK,ELECTRONIC_PARKING,WHOLE_DAY,SUN_&_PH_FR_7AM-10.30PM,1,12,2.15,0,334,1.37949253,103.7499803,CHOA CHU KANG,3.0
187,BLK 251A CHOA CHU KANG AVENUE 2,18164.3898,40080.8939,MULTI-STOREY_CAR_PARK,ELECTRONIC_PARKING,WHOLE_DAY,SUN_&_PH_FR_7AM-10.30PM,1,9,2.0,0,303,1.378750233,103.7449384,CHOA CHU KANG,3.0
188,BLK 253A CHOA CHU KANG AVE 1,18055.7989,39931.0181,MULTI-STOREY_CAR_PARK,ELECTRONIC_PARKING,WHOLE_DAY,SUN_&_PH_FR_7AM-10.30PM,1,5,2.0,0,303,1.377394775,103.7439627,CHOA CHU KANG,3.0
189,BLK 502A CHOA CHU KANG STREET 51,17943.2973,41180.8424,MULTI-STOREY_CAR_PARK,ELECTRONIC_PARKING,WHOLE_DAY,SUN_&_PH_FR_7AM-10.30PM,1,7,1.9,0,236,1.388697686,103.7429514,CHOA CHU KANG,3.0
190,BLK 511A CHOA CHU KANG STREET 51,17736.9363,41167.5327,MULTI-STOREY_CAR_PARK,ELECTRONIC_PARKING,WHOLE_DAY,SUN_&_PH_FR_7AM-10.30PM,1,9,2.0,0,324,1.388577246,103.741097,CHOA CHU KANG,3.0
191,BLK 513A CHOA CHU KANG STREET 51,17881.6424,41361.0029,MULTI-STOREY_CAR_PARK,ELECTRONIC_PARKING,WHOLE_DAY,SUN_&_PH_FR_7AM-10.30PM,1,10,2.0,0,350,1.390326969,103.7423973,CHOA CHU KANG,3.0
192,BLK 527A CHOA CHU KANG STREET 51,17735.8704,41577.6177,MULTI-STOREY_CAR_PARK,ELECTRONIC_PARKING,WHOLE_DAY,SUN_&_PH_FR_7AM-10.30PM,1,9,1.9,0,407,1.392285902,103.7410873,CHOA CHU KANG,3.0
193,BLK 552A CHOA CHU KANG STREET 52,17863.0257,41773.0092,MULTI-STOREY_CAR_PARK,ELECTRONIC_PARKING,WHOLE_DAY,SUN_&_PH_FR_7AM-10.30PM,1,10,1.9,0,325,1.394052995,103.7422298,CHOA CHU KANG,3.0
194,BLK 541A CHOA CHU KANG STREET 52,18148.0534,41666.0012,MULTI-STOREY_CAR_PARK,ELECTRONIC_PARKING,WHOLE_DAY,SUN_&_PH_FR_7AM-10.30PM,1,10,1.9,0,351,1.393085353,103.7447911,CHOA CHU KANG,3.0
195,BLK 559A CHOA CHU KANG NORTH 6,18090.945,42004.5732,MULTI-STOREY_CAR_PARK,ELECTRONIC_PARKING,7AM-10.30PM,SUN_&_PH_FR_7AM-10.30PM,0,11,2.0,0,304,1.396147253,103.7442778,CHOA CHU KANG,3.0
196,BLK 567A CHOA CHU KANG STREET 52,18298.9982,41919.8106,MULTI-STOREY_CAR_PARK,ELECTRONIC_PARKING,WHOLE_DAY,SUN_&_PH_FR_7AM-10.30PM,1,11,1.9,0,329,1.395380762,103.7461474,CHOA CHU KANG,3.0
197,BLK 708A CHOA CHU KANG STREET 53,18333.4408,41430.698,MULTI-STOREY_CAR_PARK,ELECTRONIC_PARKING,WHOLE_DAY,SUN_&_PH_FR_7AM-10.30PM,1,11,2.0,0,432,1.39095742,103.746457,CHOA CHU KANG,3.0
198,BLK 754A CHOA CHU KANG NORTH 5,18363.8684,41631.0171,MULTI-STOREY_CAR_PARK,ELECTRONIC_PARKING,WHOLE_DAY,SUN_&_PH_FR_7AM-10.30PM,1,11,1.95,0,336,1.392769042,103.7467304,CHOA CHU KANG,3.0
199,BLK 762A CHOA CHU KANG NTH 5,18631.6662,41611.081,MULTI-STOREY_CAR_PARK,ELECTRONIC_PARKING,WHOLE_DAY,SUN_&_PH_FR_7AM-10.30PM,1,10,2.0,0,335,1.392588835,103.7491367,CHOA CHU KANG,3.0
200,BLK 771A CHOA CHU KANG ST 54,18724.0529,41824.3887,MULTI-STOREY_CAR_PARK,ELECTRONIC_PARKING,WHOLE_DAY,SUN_&_PH_FR_7AM-10.30PM,1,10,2.0,0,373,1.394517941,103.7499668,CHOA CHU KANG,3.0
201,BLK 792A CHOA CHU KANG NTH 6,18675.6762,41907.1414,MULTI-STOREY_CAR_PARK,ELECTRONIC_PARKING,WHOLE_DAY,SUN_&_PH_FR_7AM-10.30PM,1,10,2.0,0,350,1.39526631,103.7495321,CHOA CHU KANG,3.0
202,BLK 787A CHOA CHU KANG DRIVE,18471.7225,41904.1787,MULTI-STOREY_CAR_PARK,ELECTRONIC_PARKING,WHOLE_DAY,SUN_&_PH_FR_7AM-10.30PM,1,10,2.0,0,400,1.39523945,103.7476994,CHOA CHU KANG,3.0
203,BLK 604A CHOA CHU KANG ST 62,18189.9873,42143.3391,MULTI-STOREY_CAR_PARK,ELECTRONIC_PARKING,WHOLE_DAY,SUN_&_PH_FR_7AM-10.30PM,1,10,2.0,0,344,1.397402234,103.7451677,CHOA CHU KANG,3.0
204,BLK 610A CHOA CHU KANG ST 62,18006.9629,42295.9806,MULTI-STOREY_CAR_PARK,ELECTRONIC_PARKING,WHOLE_DAY,SUN_&_PH_FR_7AM-10.30PM,1,9,2.0,0,374,1.398782605,103.7435231,CHOA CHU KANG,3.0
205,BLK 611A CHOA CHU KANG ST 62,18031.8277,42477.9839,MULTI-STOREY_CAR_PARK,ELECTRONIC_PARKING,WHOLE_DAY,SUN_&_PH_FR_7AM-10.30PM,1,9,2.0,0,371,1.400428584,103.7437464,CHOA CHU KANG,3.0
206,BLK 621A CHOA CHU KANG NORTH 7,18459.6171,42391.2166,MULTI-STOREY_CAR_PARK,ELECTRONIC_PARKING,WHOLE_DAY,NO,1,10,2.0,0,315,1.399644037,103.7475905,CHOA CHU KANG,3.0
207,BLK 659A/660A/661A CHOA CHU KANG CRESCENT,18754.0711,42503.4389,MULTI-STOREY_CAR_PARK,ELECTRONIC_PARKING,WHOLE_DAY,SUN_&_PH_FR_7AM-10.30PM,1,6,2.15,0,684,1.40065903,103.7502364,CHOA CHU KANG,3.0
208,BLK 668A CHOA CHU KANG CRESCENT,18748.505,42602.4434,MULTI-STOREY_CAR_PARK,ELECTRONIC_PARKING,WHOLE_DAY,SUN_&_PH_FR_7AM-10.30PM,1,12,2.15,0,565,1.401554388,103.7501863,CHOA CHU KANG,3.0
209,BLK 638-643 CHOA CHU KANG STREET 64,18629.4583,42224.5521,OTHERS,ELECTRONIC_PARKING,WHOLE_DAY,SUN_&_PH_FR_7AM-10.30PM,1,2,2.15,1,618,1.398136841,103.7491167,CHOA CHU KANG,10.0
210,BLK 631-637 & 636A CHOA CHU KANG NORTH 6,18561.8248,42111.2701,OTHERS,ELECTRONIC_PARKING,7AM-10.30PM,SUN_&_PH_FR_7AM-10.30PM,0,0,2.15,0,397,1.397112338,103.748509,CHOA CHU KANG,10.0
211,BLK 675A CHOA CHU KANG CRESCENT,18357.265,42562.8339,MULTI-STOREY_CAR_PARK,ELECTRONIC_PARKING,WHOLE_DAY,SUN_&_PH_FR_7AM-10.30PM,1,9,2.0,0,465,1.401196047,103.7466707,CHOA CHU KANG,3.0
212,BLK 669A CHOA CHU KANG CRESCENT,18541.2289,42678.1909,MULTI-STOREY_CAR_PARK,ELECTRONIC_PARKING,WHOLE_DAY,SUN_&_PH_FR_7AM-10.30PM,1,10,2.0,0,460,1.402239354,103.7483237,CHOA CHU KANG,3.0
213,BLK 678A CHOA CHU KANG CRESCENT,18157.8829,42638.4707,MULTI-STOREY_CAR_PARK,ELECTRONIC_PARKING,WHOLE_DAY,SUN_&_PH_FR_7AM-10.30PM,1,13,2.15,0,875,1.40188001,103.7448791,CHOA CHU KANG,3.0
214,BLK 297A CHOA CHU KANG AVE 2,17841.6171,39866.5767,MULTI-STOREY_CAR_PARK,ELECTRONIC_PARKING,WHOLE_DAY,SUN_&_PH_FR_7AM-10.30PM,1,11,2.15,0,535,1.376811917,103.7420381,CHOA CHU KANG,3.0
215,BLK 146A 146A TECK WHYE AVENUE,19076.7918,40333.5431,MULTI-STOREY_CAR_PARK,ELECTRONIC_PARKING,WHOLE_DAY,NO,1,5,2.15,0,230,1.381035392,103.7531369,CHOA CHU KANG,3.0
216,BLK 683 CHOA CHU KANG CRESCENT,18268.595,42905.4416,MULTI-STOREY_CAR_PARK,ELECTRONIC_PARKING,WHOLE_DAY,SUN_&_PH_FR_7AM-10.30PM,1,12,2.15,0,535,1.404294434,103.7458738,CHOA CHU KANG,3.0
217,BLK 686 CHOA CHU KANG CRESCENT,18607.321,42882.7597,MULTI-STOREY_CAR_PARK,ELECTRONIC_PARKING,WHOLE_DAY,SUN_&_PH_FR_7AM-10.30PM,1,13,2.15,0,597,1.40408942,103.7489176,CHOA CHU KANG,3.0
218,BLK 687 CHOA CHU KANG DRIVE,18715.5324,42855.1194,MULTI-STOREY_CAR_PARK,ELECTRONIC_PARKING,WHOLE_DAY,SUN_&_PH_FR_7AM-10.30PM,1,12,2.15,0,650,1.403839486,103.7498899,CHOA CHU KANG,3.0
219,BLK 689 CHOA CHU KANG CRESCENT,18826.1888,42747.1959,MULTI-STOREY_CAR_PARK,ELECTRONIC_PARKING,WHOLE_DAY,SUN_&_PH_FR_7AM-10.30PM,1,12,2.15,0,565,1.402863502,103.7508843,CHOA CHU KANG,3.0
220,BLK 692 CHOA CHU KANG CRESCENT,18872.7705,42404.3378,MULTI-STOREY_CAR_PARK,ELECTRONIC_PARKING,WHOLE_DAY,SUN_&_PH_FR_7AM-10.30PM,1,13,2.15,0,715,1.399762834,103.751303,CHOA CHU KANG,3.0
221,BLK 573A CHOA CHU KANG STREET 52,18230.9826,41763.9633,MULTI-STOREY_CAR_PARK,ELECTRONIC_PARKING,7AM-10.30PM,NO,0,4,2.15,0,164,1.393971314,103.7455362,CHOA CHU KANG,3.0
222,BLK 135A TECK WHYE LANE,18945.8673,40250.2699,MULTI-STOREY_CAR_PARK,ELECTRONIC_PARKING,WHOLE_DAY,SUN_&_PH_FR_7AM-10.30PM,1,10,1.8,0,387,1.380282259,103.7519605,CHOA CHU KANG,3.0
223,BLK 476 CHOA CHU KANG AVE 5,17408.5254,39880.0108,MULTI-STOREY_CAR_PARK,ELECTRONIC_PARKING,NO,NO,1,8,2.15,0,298,1.376933257,103.7381465,CHOA CHU KANG,3.0
224,BLK 488 CHOA CHU KANG AVE 5,17467.9916,39852.8673,MULTI-STOREY_CAR_PARK,ELECTRONIC_PARKING,WHOLE_DAY,SUN_&_PH_FR_7AM-10.30PM,1,7,2.15,0,298,1.376687803,103.7386808,CHOA CHU KANG,3.0
225,BLK 489 CHOA CHU KANG AVE 5,17718.345,39728.0193,MULTI-STOREY_CAR_PARK,ELECTRONIC_PARKING,WHOLE_DAY,SUN_&_PH_FR_7AM-10.30PM,1,16,2.15,0,535,1.375558813,103.7409305,CHOA CHU KANG,3.0
226,BLK 801 KEAT HONG CLOSE,17994.5933,39697.5018,MULTI-STOREY_CAR_PARK,ELECTRONIC_PARKING,WHOLE_DAY,SUN_&_PH_FR_7AM-10.30PM,1,14,2.15,0,535,1.375282919,103.7434128,CHOA CHU KANG,3.0
227,BLK 805 KEAT HONG CLOSE,17975.1882,39477.9306,MULTI-STOREY_CAR_PARK,ELECTRONIC_PARKING,WHOLE_DAY,SUN_&_PH_FR_7AM-10.30PM,1,6,2.15,0,558,1.373297191,103.7432385,CHOA CHU KANG,3.0
228,BLK 809 CHOA CHU KANG AVENUE 1,18119.3938,39664.2718,MULTI-STOREY_CAR_PARK,ELECTRONIC_PARKING,WHOLE_DAY,SUN_&_PH_FR_7AM-10.30PM,1,11,2.15,0,535,1.374982441,103.7445342,CHOA CHU KANG,3.0
229,BLK 810 CHOA CHU KANG AVE 7,18305.5202,39560.1044,MULTI-STOREY_CAR_PARK,ELECTRONIC_PARKING,WHOLE_DAY,SUN_&_PH_FR_7AM-10.30PM,1,7,2.15,0,488,1.374040452,103.7462067,CHOA CHU KANG,3.0
230,BLK 815 CHOA CHU KANG AVE 7,18361.9468,39838.3954,MULTI-STOREY_CAR_PARK,ELECTRONIC_PARKING,WHOLE_DAY,SUN_&_PH_FR_7AM-10.30PM,1,6,2.15,0,535,1.376557232,103.7467137,CHOA CHU KANG,3.0
231,817 KEAT HONG LINK,18660.8389,39885.9891,MULTI-STOREY_CAR_PARK,ELECTRONIC_PARKING,WHOLE_DAY,SUN_&_PH_FR_7AM-10.30PM,1,7,2.15,0,555,1.376987748,103.7493994,CHOA CHU KANG,3.0
232,BLK 203A CHOA CHU KANG AVE 1/CENTRAL,18614.0227,40353.8181,MULTI-STOREY_CAR_PARK,ELECTRONIC_PARKING,WHOLE_DAY,SUN_&_PH_FR_7AM-10.30PM,1,12,2.15,0,312,1.381218607,103.7489786,CHOA CHU KANG,3.0
233,BLK 129A CLARENCE LANE,25894.5957,30541.7316,MULTI-STOREY_CAR_PARK,ELECTRONIC_PARKING,WHOLE_DAY,SUN_&_PH_FR_7AM-10.30PM,1,10,2.0,0,275,1.292483012,103.8144006,QUEENSTOWN,3.0
234,312 CLEMENTI AVE 4,20283.9283,33479.407,MULTI-STOREY_CAR_PARK,ELECTRONIC_PARKING,WHOLE_DAY,SUN_&_PH_FR_7AM-10.30PM,1,13,2.15,0,250,1.319049412,103.7639857,CLEMENTI,3.0
235,BLK 311 CLEMENTI AVE 4,20411.5945,33513.7467,MULTI-STOREY_CAR_PARK,ELECTRONIC_PARKING,WHOLE_DAY,SUN_&_PH_FR_7AM-10.30PM,1,13,2.1,0,250,1.31936,103.7651328,CLEMENTI,3.0
236,BLK 10 CANTONMENT CLOSE,28656.4003,28548.62,MULTI-STOREY_CAR_PARK,ELECTRONIC_PARKING,WHOLE_DAY,SUN_&_PH_FR_7AM-10.30PM,1,12,2.15,0,530,1.274458074,103.8392166,OUTRAM,3.0
237,BLK 54 CHIN SWEE ROAD MSCP,28873.2635,29983.8819,MULTI-STOREY_CAR_PARK,ELECTRONIC_PARKING,WHOLE_DAY,SUN_&_PH_FR_7AM-10.30PM,1,10,1.9,0,488,1.287438074,103.8411652,OUTRAM,3.0
238,BLK 441 COMMONWEALTH AVE WEST,20293.6227,33003.4096,MULTI-STOREY_CAR_PARK,ELECTRONIC_PARKING,WHOLE_DAY,NO,1,2,2.15,0,264,1.314744665,103.7640729,QUEENSTOWN,3.0
239,BLK 8C BOON KENG ROAD,31083.7452,33199.2328,MULTI-STOREY_CAR_PARK,ELECTRONIC_PARKING,7AM-10.30PM,NO,0,6,2.15,0,441,1.316516433,103.8610276,KALLANG,3.0
240,BLK 1/1A TELOK PAKU ROAD,45233.8667,41140.4649,OTHERS,ELECTRONIC_PARKING,WHOLE_DAY,NO,1,0,3.8,0,414,1.388329163,103.988178,CHANGI,10.0
241,BLK 309A CLEMENTI AVE 4,20528.1198,33646.8063,MULTI-STOREY_CAR_PARK,ELECTRONIC_PARKING,WHOLE_DAY,SUN_&_PH_FR_7AM-10.30PM,1,7,2.15,0,290,1.320563371,103.7661798,CLEMENTI,3.0
242,BLK 318A CLEMENTI AVE 4,20417.4455,33296.1766,MULTI-STOREY_CAR_PARK,ELECTRONIC_PARKING,WHOLE_DAY,SUN_&_PH_FR_7AM-10.30PM,1,2,2.15,0,211,1.317392375,103.7651855,CLEMENTI,3.0
243,BLK 440 CLEMENTI AVE 3,20278.0675,33166.8296,MULTI-STOREY_CAR_PARK,ELECTRONIC_PARKING,WHOLE_DAY,NO,1,6,2.15,0,285,1.316222573,103.7639331,CLEMENTI,3.0
244,BLK 445 CLEMENTI AVE3,20269.322,32850.6337,MULTI-STOREY_CAR_PARK,ELECTRONIC_PARKING,WHOLE_DAY,NO,1,14,2.15,0,339,1.313363009,103.7638546,CLEMENTI,3.0
245,BLK 462A CLEMENTI AVENUE 3,20469.2131,32645.0967,MULTI-STOREY_CAR_PARK,ELECTRONIC_PARKING,WHOLE_DAY,SUN_&_PH_FR_7AM-10.30PM,1,18,2.15,0,551,1.311504255,103.7656508,CLEMENTI,3.0
246,BLK 455A CLEMENTI AVE 3,20566.6991,32662.4476,MULTI-STOREY_CAR_PARK,ELECTRONIC_PARKING,WHOLE_DAY,SUN_&_PH_FR_7AM-10.30PM,1,12,2.15,0,384,1.311661194,103.7665267,CLEMENTI,3.0
247,BLK 109A CLEMENTI ST 11,20991.1005,33766.9817,MULTI-STOREY_CAR_PARK,ELECTRONIC_PARKING,WHOLE_DAY,SUN_&_PH_FR_7AM-10.30PM,1,6,1.9,0,200,1.321650304,103.7703399,CLEMENTI,3.0
248,BLK 208 CLEMENTI AVE 6,20070.902,33845.674,MULTI-STOREY_CAR_PARK,ELECTRONIC_PARKING,WHOLE_DAY,SUN_&_PH_FR_7AM-10.30PM,1,6,2.15,0,250,1.322361744,103.7620715,CLEMENTI,3.0
249,BLK 416A CLEMENTI AVE 1,20967.8189,32458.1382,MULTI-STOREY_CAR_PARK,ELECTRONIC_PARKING,WHOLE_DAY,SUN_&_PH_FR_7AM-10.30PM,1,2,2.15,0,885,1.309813588,103.770131,CLEMENTI,3.0
250,BLK 413A COMMONWEALTH AVENUE WEST,21009.1656,32642.4126,MULTI-STOREY_CAR_PARK,ELECTRONIC_PARKING,WHOLE_DAY,SUN_&_PH_FR_7AM-10.30PM,1,9,2.0,0,394,1.311480109,103.7705025,CLEMENTI,3.0
251,BLK 104C DEPOT ROAD,25576.6096,29218.1692,MULTI-STOREY_CAR_PARK,ELECTRONIC_PARKING,WHOLE_DAY,SUN_&_PH_FR_7AM-10.30PM,1,14,2.15,0,416,1.280513156,103.8115435,BUKIT MERAH,3.0
252,BLK 112C DEPOT ROAD,25165.8976,29305.1091,MULTI-STOREY_CAR_PARK,ELECTRONIC_PARKING,WHOLE_DAY,SUN_&_PH_FR_7AM-10.30PM,1,14,2.15,0,481,1.281299376,103.8078531,BUKIT MERAH,3.0
253,108A DEPOT ROAD,25390.1316,29254.1321,MULTI-STOREY_CAR_PARK,ELECTRONIC_PARKING,WHOLE_DAY,SUN_&_PH_FR_7AM-10.30PM,1,11,2.15,0,416,1.280838377,103.8098679,BUKIT MERAH,3.0
254,BLK 105 DEPOT ROAD,25668.1428,29257.6985,MULTI-STOREY_CAR_PARK,ELECTRONIC_PARKING,WHOLE_DAY,NO,1,3,2.15,0,416,1.280870652,103.8123659,BUKIT MERAH,3.0
255,BLOCK 110 DEPOT ROAD,25346.6693,29308.7018,OTHERS,ELECTRONIC_PARKING,WHOLE_DAY,NO,1,1,2.15,1,84,1.281331883,103.8094774,BUKIT MERAH,10.0
256,BLK 1 CANTONMENT ROAD,28860.8985,28827.1925,OTHERS,ELECTRONIC_PARKING,7AM-10.30PM,NO,0,3,2.1,1,1090,1.276977381,103.8410541,OUTRAM,10.0
257,BLK 95A DAWSON ROAD,25620.1022,30938.7202,MULTI-STOREY_CAR_PARK,ELECTRONIC_PARKING,WHOLE_DAY,NO,1,13,2.15,0,391,1.296073217,103.8119342,QUEENSTOWN,3.0
258,BLK 89A DAWSON ROAD,25626.2862,30840.6986,MULTI-STOREY_CAR_PARK,ELECTRONIC_PARKING,7AM-10.30PM,NO,0,4,2.15,0,391,1.295186745,103.8119897,QUEENSTOWN,3.0
259,BLK 85 DAWSON ROAD,25362.2059,30853.9755,MULTI-STOREY_CAR_PARK,ELECTRONIC_PARKING,WHOLE_DAY,NO,1,13,2.15,0,425,1.295306795,103.8096169,QUEENSTOWN,3.0
260,BLK 78A DAWSON ROAD,25420.9278,30734.4029,MULTI-STOREY_CAR_PARK,ELECTRONIC_PARKING,WHOLE_DAY,NO,1,13,2.15,0,318,1.294225428,103.8101445,QUEENSTOWN,3.0
261,BLK 31A EUNOS CRESCENT,35602.0712,33587.8309,MULTI-STOREY_CAR_PARK,ELECTRONIC_PARKING,WHOLE_DAY,SUN_&_PH_FR_7AM-10.30PM,1,10,2.15,0,423,1.320029988,103.9016271,GEYLANG,3.0
262,BLK 6A EVERTON ROAD,28622.0835,28739.5121,MULTI-STOREY_CAR_PARK,ELECTRONIC_PARKING,WHOLE_DAY,SUN_&_PH_FR_7AM-10.30PM,1,9,2.15,0,530,1.276184436,103.8389082,BUKIT MERAH,3.0
263,BLK 808 FRENCH ROAD MSCP,31121.2668,32341.4155,MULTI-STOREY_CAR_PARK,ELECTRONIC_PARKING,WHOLE_DAY,SUN_&_PH_FR_7AM-10.30PM,1,9,2.5,0,272,1.308758633,103.8613647,KALLANG,3.0
264,BLK 3/4 QUEEN'S ROAD,25150.3008,33394.0586,OTHERS,ELECTRONIC_PARKING,WHOLE_DAY,NO,1,0,2.4,0,440,1.318278391,103.8077126,BUKIT TIMAH,10.0
265,BLK 8A EMPRESS ROAD,24983.1434,33218.9585,MULTI-STOREY_CAR_PARK,ELECTRONIC_PARKING,WHOLE_DAY,NO,1,12,2.15,0,440,1.316694831,103.8062106,BUKIT TIMAH,3.0
266,BLK 6A FARRER ROAD,25130.4814,33238.9594,MULTI-STOREY_CAR_PARK,ELECTRONIC_PARKING,WHOLE_DAY,NO,1,3,2.15,0,440,1.316875727,103.8075345,BUKIT TIMAH,3.0
267,BLK 60A GEYLANG BAHRU,31930.2182,33890.9953,MULTI-STOREY_CAR_PARK,ELECTRONIC_PARKING,WHOLE_DAY,SUN_&_PH_FR_7AM-10.30PM,1,12,2.15,0,685,1.322772391,103.8686337,KALLANG,3.0
268,BLK 118 ALJUNIED AVE 2,34041.285,33588.5472,MULTI-STOREY_CAR_PARK,ELECTRONIC_PARKING,WHOLE_DAY,SUN_&_PH_FR_7AM-10.30PM,1,9,1.8,0,290,1.320036814,103.8876027,GEYLANG,3.0
269,BLK 24 GHIM MOH LINK,22713.9209,32338.0954,MULTI-STOREY_CAR_PARK,ELECTRONIC_PARKING,NO,SUN_&_PH_FR_7AM-10.30PM,1,7,2.15,0,705,1.308728312,103.7858206,QUEENSTOWN,3.0
270,BLK 2A GHIM MOH ROAD,22836.9123,32767.7127,MULTI-STOREY_CAR_PARK,ELECTRONIC_PARKING,WHOLE_DAY,SUN_&_PH_FR_7AM-10.30PM,1,2,2.15,0,212,1.312613639,103.7869257,QUEENSTOWN,3.0
271,BLK 5A GHIM MOH RD,22985.068,32801.7739,MULTI-STOREY_CAR_PARK,ELECTRONIC_PARKING,WHOLE_DAY,SUN_&_PH_FR_7AM-10.30PM,1,2,2.15,0,212,1.312921701,103.7882569,QUEENSTOWN,3.0
272,31A GHIM MOH LINK,22552.3566,32407.3317,MULTI-STOREY_CAR_PARK,ELECTRONIC_PARKING,WHOLE_DAY,SUN_&_PH_FR_7AM-10.30PM,1,7,2.15,0,410,1.309354432,103.7843689,QUEENSTOWN,3.0
273,BLK 8A GHIM MOH RD,22874.5952,32575.0244,MULTI-STOREY_CAR_PARK,ELECTRONIC_PARKING,WHOLE_DAY,SUN_&_PH_FR_7AM-10.30PM,1,5,2.15,0,400,1.310871041,103.7872643,QUEENSTOWN,3.0
274,BLK 13A GHIM MOH RD,23036.915,32422.5932,MULTI-STOREY_CAR_PARK,ELECTRONIC_PARKING,7AM-7PM,SUN_&_PH_FR_7AM-10.30PM,0,5,2.15,0,160,1.309492534,103.7887229,QUEENSTOWN,3.0
275,BLK 16A GHIM MOH ROAD,22917.7735,32435.7026,MULTI-STOREY_CAR_PARK,ELECTRONIC_PARKING,WHOLE_DAY,SUN_&_PH_FR_7AM-10.30PM,1,7,2.15,0,225,1.309611071,103.7876523,QUEENSTOWN,3.0
276,BLK 2 GEYLANG SERAI,35236.2639,33275.6378,MULTI-STOREY_CAR_PARK,ELECTRONIC_PARKING,WHOLE_DAY,NO,1,7,2.15,0,464,1.317206714,103.8983401,GEYLANG,3.0
277,BLK 104A HENDERSON CRESCENT,26691.3633,30161.685,MULTI-STOREY_CAR_PARK,ELECTRONIC_PARKING,WHOLE_DAY,SUN_&_PH_FR_7AM-10.30PM,1,11,2.1,0,385,1.289046048,103.8215599,BUKIT MERAH,3.0
278,BLK 480 480 LORONG 6 TOA PAYOH,29669.4119,34933.9237,OTHERS,ELECTRONIC_PARKING,WHOLE_DAY,NO,1,3,2.1,1,553,1.332204473,103.8483192,TOA PAYOH,10.0
279,BLK 470 UPPER SERANGOON CRESCENT,35619.4738,40071.2687,MULTI-STOREY_CAR_PARK,ELECTRONIC_PARKING,WHOLE_DAY,SUN_&_PH_FR_7AM-10.30PM,1,14,2.15,0,455,1.378663847,103.9017851,HOUGANG,3.0
280,BLK 475 UPPER SERANGOON CRESCENT,35497.5223,39745.8425,MULTI-STOREY_CAR_PARK,ELECTRONIC_PARKING,WHOLE_DAY,SUN_&_PH_FR_7AM-10.30PM,1,14,2.15,0,435,1.375720843,103.9006892,HOUGANG,3.0
281,BLK 476 UPP SERANGOON VIEW,35829.7203,39930.3842,MULTI-STOREY_CAR_PARK,ELECTRONIC_PARKING,WHOLE_DAY,NO,1,8,2.15,0,455,1.377389684,103.9036743,HOUGANG,3.0
282,BLK 376 HOUGANG ST 32,34765.7308,38421.4154,MULTI-STOREY_CAR_PARK,ELECTRONIC_PARKING,WHOLE_DAY,NO,1,10,2.15,0,416,1.363743381,103.8941133,HOUGANG,3.0
283,BLK 377 HOUGANG STREET 32,34832.7635,38300.6631,MULTI-STOREY_CAR_PARK,ELECTRONIC_PARKING,WHOLE_DAY,NO,1,5,2.1,0,416,1.362651326,103.8947156,HOUGANG,3.0
284,BLK 473 UPP SERANGOON CRESCENT,35501.0297,39817.8795,MULTI-STOREY_CAR_PARK,ELECTRONIC_PARKING,WHOLE_DAY,SUN_&_PH_FR_7AM-10.30PM,1,2,2.15,0,435,1.376372318,103.9007208,HOUGANG,3.0
285,BLK 933 HOUGANG AVENUE 9,33468.3697,39724.6803,MULTI-STOREY_CAR_PARK,ELECTRONIC_PARKING,WHOLE_DAY,NO,1,14,2.15,0,438,1.375529907,103.8824558,HOUGANG,3.0
286,BLK 364 / 365 UPP SERANGOON RD,35112.2965,39125.1711,MULTI-STOREY_CAR_PARK,ELECTRONIC_PARKING,WHOLE_DAY,NO,1,14,2.15,0,425,1.370107812,103.8972276,HOUGANG,3.0
287,BLK 997 BUANGKOK CRESCENT,33282.6779,40818.5609,MULTI-STOREY_CAR_PARK,ELECTRONIC_PARKING,WHOLE_DAY,NO,1,14,2.15,0,373,1.385422602,103.8807875,HOUGANG,3.0
288,BLK 991 BUANGKOK LINK,33375.828,40694.4027,MULTI-STOREY_CAR_PARK,ELECTRONIC_PARKING,WHOLE_DAY,NO,1,7,2.15,0,418,1.384299744,103.8816245,HOUGANG,3.0
289,BLK 996 BUANGKOK CRESCENT,33418.229,40968.2736,MULTI-STOREY_CAR_PARK,ELECTRONIC_PARKING,WHOLE_DAY,NO,1,15,2.15,0,348,1.386776525,103.8820055,HOUGANG,3.0
290,BLK 998 BUANGKOK CRESCENT,33158.7215,40684.5984,MULTI-STOREY_CAR_PARK,ELECTRONIC_PARKING,WHOLE_DAY,NO,1,11,2.15,0,354,1.384211116,103.8796736,HOUGANG,3.0
291,BLK 993 BUANGKOK LINK,33602.1418,40785.1834,MULTI-STOREY_CAR_PARK,ELECTRONIC_PARKING,WHOLE_DAY,NO,1,13,2.15,0,367,1.385120689,103.8836581,HOUGANG,3.0
292,BLK 805 HOUGANG CENTRAL,34748.896,39244.171,MULTI-STOREY_CAR_PARK,ELECTRONIC_PARKING,WHOLE_DAY,NO,1,8,1.9,0,331,1.371184089,103.8939622,HOUGANG,3.0
293,BLK 830A HOUGANG CENTRAL,34386.2027,39209.6336,MULTI-STOREY_CAR_PARK,ELECTRONIC_PARKING,7AM-10.30PM,SUN_&_PH_FR_7AM-10.30PM,0,10,1.87,0,416,1.370871826,103.8907031,HOUGANG,3.0
294,BLK 220-222 HOUGANG STREET 21,33679.7387,37636.4156,MULTI-STOREY_CAR_PARK,ELECTRONIC_PARKING,WHOLE_DAY,SUN_&_PH_FR_7AM-10.30PM,1,10,1.86,0,327,1.356644354,103.8843547,HOUGANG,3.0
295,BLK 548A HOUGANG STREET 51,34440.7881,40108.8916,MULTI-STOREY_CAR_PARK,ELECTRONIC_PARKING,WHOLE_DAY,NO,1,11,2.0,0,415,1.379004378,103.8911938,HOUGANG,3.0
296,BLK 559A HOUGANG STREET 51,34213.8314,40180.7212,MULTI-STOREY_CAR_PARK,ELECTRONIC_PARKING,WHOLE_DAY,NO,1,7,2.0,0,315,1.379654028,103.8891544,HOUGANG,3.0
297,BLK 566A HOUGANG STREET 51,34147.6282,40310.4206,MULTI-STOREY_CAR_PARK,ELECTRONIC_PARKING,WHOLE_DAY,NO,1,10,2.0,0,380,1.380826996,103.8885596,HOUGANG,3.0
298,BLK 465A UPPER SERANGOON ROAD,35127.5269,39373.949,MULTI-STOREY_CAR_PARK,ELECTRONIC_PARKING,WHOLE_DAY,SUN_&_PH_FR_7AM-10.30PM,1,11,2.0,0,240,1.372357665,103.8973645,HOUGANG,3.0
299,BLK 838A HOUGANG CENTRAL,34512.6726,39104.8807,MULTI-STOREY_CAR_PARK,ELECTRONIC_PARKING,WHOLE_DAY,SUN_&_PH_FR_7AM-10.30PM,1,10,2.0,0,425,1.369924451,103.8918395,HOUGANG,3.0
300,BLK 850A HOUGANG CENTRAL,34638.456,39111.1082,MULTI-STOREY_CAR_PARK,ELECTRONIC_PARKING,WHOLE_DAY,SUN_&_PH_FR_7AM-10.30PM,1,10,2.0,0,425,1.369980742,103.8929698,HOUGANG,3.0
301,BLK 567A HOUGANG STREET 51,34141.9377,40105.4776,MULTI-STOREY_CAR_PARK,ELECTRONIC_PARKING,WHOLE_DAY,NO,1,10,2.15,0,346,1.378973567,103.8885084,HOUGANG,3.0
302,BLK 574A HOUGANG STREET 51,33904.3999,39964.9457,MULTI-STOREY_CAR_PARK,ELECTRONIC_PARKING,WHOLE_DAY,SUN_&_PH_FR_7AM-10.30PM,1,10,2.15,0,444,1.377702696,103.8863739,HOUGANG,3.0
303,BLK 576A HOUGANG AVENUE 4,33852.9205,40066.849,MULTI-STOREY_CAR_PARK,ELECTRONIC_PARKING,WHOLE_DAY,SUN_&_PH_FR_7AM-10.30PM,1,12,2.15,0,381,1.378624283,103.8859114,HOUGANG,3.0
304,BLK 909A HOUGANG STREET 91,33590.2913,40031.4783,MULTI-STOREY_CAR_PARK,ELECTRONIC_PARKING,WHOLE_DAY,SUN_&_PH_FR_7AM-10.30PM,1,12,2.15,0,451,1.378304455,103.8835515,HOUGANG,3.0
305,BLK 166A HOUGANG AVENUE 1,34093.2753,36992.4181,MULTI-STOREY_CAR_PARK,ELECTRONIC_PARKING,WHOLE_DAY,SUN_&_PH_FR_7AM-10.30PM,1,12,2.15,0,327,1.350820191,103.8880705,HOUGANG,3.0
306,BLK 172A HOUGANG AVENUE 1,34196.4873,36967.1434,MULTI-STOREY_CAR_PARK,ELECTRONIC_PARKING,WHOLE_DAY,SUN_&_PH_FR_7AM-10.30PM,1,12,2.15,0,327,1.350591594,103.8889979,HOUGANG,3.0
307,BLK 159A HOUGANG STREET 11,33136.498,37101.9975,MULTI-STOREY_CAR_PARK,ELECTRONIC_PARKING,WHOLE_DAY,SUN_&_PH_FR_7AM-10.30PM,1,7,2.15,0,270,1.351811367,103.8794733,HOUGANG,3.0
308,BLK 919A HOUGANG AVENUE 4,33667.3839,39716.3125,MULTI-STOREY_CAR_PARK,ELECTRONIC_PARKING,WHOLE_DAY,SUN_&_PH_FR_7AM-10.30PM,1,10,2.15,0,370,1.375454194,103.8842441,HOUGANG,3.0
309,BLK 925A HOUGANG STREET 91,33558.5205,39862.4297,MULTI-STOREY_CAR_PARK,ELECTRONIC_PARKING,WHOLE_DAY,SUN_&_PH_FR_7AM-10.30PM,1,10,2.15,0,490,1.376775646,103.8832659,HOUGANG,3.0
310,BLK 931A HOUGANG STREET 91,33249.7444,39781.9719,MULTI-STOREY_CAR_PARK,ELECTRONIC_PARKING,7AM-10.30PM,NO,0,10,2.15,0,350,1.376048072,103.8804913,HOUGANG,3.0
311,BLK 941A HOUGANG STREET 92,33091.2937,39576.5271,MULTI-STOREY_CAR_PARK,ELECTRONIC_PARKING,WHOLE_DAY,SUN_&_PH_FR_7AM-10.30PM,1,12,2.15,0,412,1.374190131,103.8790675,HOUGANG,3.0
312,BLK 946A HOUGANG STREET 92,33253.8313,39628.6415,MULTI-STOREY_CAR_PARK,ELECTRONIC_PARKING,WHOLE_DAY,SUN_&_PH_FR_7AM-10.30PM,1,12,2.15,0,388,1.374661406,103.880528,HOUGANG,3.0
313,BLK 955A HOUGANG AVENUE 9,32957.2644,39767.9074,MULTI-STOREY_CAR_PARK,ELECTRONIC_PARKING,WHOLE_DAY,SUN_&_PH_FR_7AM-10.30PM,1,12,2.15,0,394,1.375920928,103.8778632,HOUGANG,3.0
314,BLK 699D HOUGANG STREET 52,34150.9965,39781.4108,MULTI-STOREY_CAR_PARK,ELECTRONIC_PARKING,WHOLE_DAY,SUN_&_PH_FR_7AM-10.30PM,1,12,2.15,0,697,1.376042822,103.8885897,HOUGANG,3.0
315,BLK 435A HOUGANG AVE 8,34756.316,39980.4127,MULTI-STOREY_CAR_PARK,ELECTRONIC_PARKING,WHOLE_DAY,SUN_&_PH_FR_7AM-10.30PM,1,12,2.15,0,440,1.37784239,103.894029,HOUGANG,3.0
316,BLK 966A HOUGANG AVENUE 9,32955.07,39984.6887,MULTI-STOREY_CAR_PARK,ELECTRONIC_PARKING,WHOLE_DAY,SUN_&_PH_FR_7AM-10.30PM,1,12,2.15,0,388,1.377881421,103.8778435,HOUGANG,3.0
317,BLK 971A HOUGANG STREET 91,33219.5565,39999.7403,MULTI-STOREY_CAR_PARK,ELECTRONIC_PARKING,WHOLE_DAY,SUN_&_PH_FR_7AM-10.30PM,1,12,2.15,0,388,1.378017496,103.8802201,HOUGANG,3.0
318,BLK 373A HOUGANG STREET 31,34315.7845,38258.1777,MULTI-STOREY_CAR_PARK,ELECTRONIC_PARKING,WHOLE_DAY,SUN_&_PH_FR_7AM-10.30PM,1,12,2.15,0,382,1.362267218,103.8900702,HOUGANG,3.0
319,BLK 980 BUANGKOK CRESCENT,33208.1321,40216.5463,MULTI-STOREY_CAR_PARK,ELECTRONIC_PARKING,WHOLE_DAY,SUN_&_PH_FR_7AM-10.30PM,1,13,2.15,0,383,1.379978213,103.8801175,HOUGANG,3.0
320,BLK 984 BUANGKOK LINK,33267.1427,40391.5643,MULTI-STOREY_CAR_PARK,ELECTRONIC_PARKING,WHOLE_DAY,SUN_&_PH_FR_7AM-10.30PM,1,13,2.15,0,382,1.381561002,103.8806478,HOUGANG,3.0
321,BLK 105 HOUGANG AVENUE 1,34319.1474,37341.5832,MULTI-STOREY_CAR_PARK,ELECTRONIC_PARKING,WHOLE_DAY,NO,1,2,2.15,0,354,1.353977867,103.8901002,HOUGANG,3.0
322,BLK 988 BUANGKOK GREEN,32938.9335,40216.0826,MULTI-STOREY_CAR_PARK,ELECTRONIC_PARKING,WHOLE_DAY,SUN_&_PH_FR_7AM-10.30PM,1,9,2.15,0,280,1.379974066,103.8776986,HOUGANG,3.0
323,BLK 533A HONG LIM MSCP,29354.6692,29687.508,MULTI-STOREY_CAR_PARK,ELECTRONIC_PARKING,WHOLE_DAY,NO,1,11,1.9,0,488,1.284757756,103.8454908,OUTRAM,3.0
324,BLK 96 HENDERSON ROAD,26668.6582,29993.0383,MULTI-STOREY_CAR_PARK,ELECTRONIC_PARKING,WHOLE_DAY,SUN_&_PH_FR_7AM-10.30PM,1,9,2.15,0,751,1.287520865,103.8213559,BUKIT MERAH,3.0
325,BLK 51 HAVELOCK ROAD,27376.7446,30252.7338,MULTI-STOREY_CAR_PARK,ELECTRONIC_PARKING,WHOLE_DAY,SUN_&_PH_FR_7AM-10.30PM,1,10,2.15,0,583,1.289869482,103.8277184,BUKIT MERAH,3.0
326,BLK 96 HAVELOCK ROAD MSCP,27905.0274,30102.5966,MULTI-STOREY_CAR_PARK,ELECTRONIC_PARKING,WHOLE_DAY,SUN_&_PH_FR_7AM-10.30PM,1,10,1.9,0,219,1.2885117,103.8324652,BUKIT MERAH,3.0
327,BLK 28A BEO CRESCENT,27392.1841,30064.5769,MULTI-STOREY_CAR_PARK,ELECTRONIC_PARKING,WHOLE_DAY,SUN_&_PH_FR_7AM-10.30PM,1,5,2.0,0,229,1.288167858,103.8278571,BUKIT MERAH,3.0
328,BLK 44A HAVELOCK ROAD,27294.4381,30155.4567,MULTI-STOREY_CAR_PARK,ELECTRONIC_PARKING,WHOLE_DAY,SUN_&_PH_FR_7AM-10.30PM,1,6,2.15,0,336,1.288989741,103.8269788,BUKIT MERAH,3.0
329,BLK 78A INDUS RD,27399.5432,30402.6587,MULTI-STOREY_CAR_PARK,ELECTRONIC_PARKING,WHOLE_DAY,SUN_&_PH_FR_7AM-10.30PM,1,5,2.15,0,373,1.291225351,103.8279232,BUKIT MERAH,3.0
330,BLK 134A JALAN BUKIT MERAH,27317.7804,29079.9207,MULTI-STOREY_CAR_PARK,ELECTRONIC_PARKING,WHOLE_DAY,SUN_&_PH_FR_7AM-10.30PM,1,11,1.9,0,381,1.279262971,103.8271886,BUKIT MERAH,3.0
331,BLK 113A JLN BUKIT MERAH,27105.3295,29188.4439,MULTI-STOREY_CAR_PARK,ELECTRONIC_PARKING,WHOLE_DAY,SUN_&_PH_FR_7AM-10.30PM,1,10,2.15,0,237,1.280244411,103.8252796,BUKIT MERAH,3.0
332,BLK 2 JOO CHIAT RD,35293.685,33059.6021,MULTI-STOREY_CAR_PARK,ELECTRONIC_PARKING,WHOLE_DAY,NO,1,7,1.9,0,377,1.315252951,103.898856,MARINE PARADE,3.0
333,BLK 8A JALAN KUKOH MSCP,28629.3066,29963.8422,MULTI-STOREY_CAR_PARK,ELECTRONIC_PARKING,WHOLE_DAY,SUN_&_PH_FR_7AM-10.30PM,1,3,1.98,0,457,1.287256848,103.8389732,OUTRAM,3.0
334,BLK 117A JALAN MEMBINA,27298.7467,29375.368,MULTI-STOREY_CAR_PARK,ELECTRONIC_PARKING,WHOLE_DAY,SUN_&_PH_FR_7AM-10.30PM,1,14,2.15,0,492,1.281934892,103.8270175,BUKIT MERAH,3.0
335,BLK 18A JALAN MEMBINA,27274.0467,29729.2354,MULTI-STOREY_CAR_PARK,ELECTRONIC_PARKING,WHOLE_DAY,SUN_&_PH_FR_7AM-10.30PM,1,14,2.15,0,664,1.285135144,103.8267956,BUKIT MERAH,3.0
336,BLK 26 JALAN MEMBINA,27140.8217,29448.5025,MULTI-STOREY_CAR_PARK,ELECTRONIC_PARKING,WHOLE_DAY,SUN_&_PH_FR_7AM-10.30PM,1,13,2.15,0,456,1.282596291,103.8255985,BUKIT MERAH,3.0
337,BLK 517B JURONG WEST STREET 52,15461.2578,36356.8719,MULTI-STOREY_CAR_PARK,ELECTRONIC_PARKING,WHOLE_DAY,SUN_&_PH_FR_7AM-10.30PM,1,10,2.15,0,343,1.345070539,103.7206504,JURONG WEST,3.0
338,BLK 648 JURONG WEST ST 61,12861.1777,35680.0784,MULTI-STOREY_CAR_PARK,ELECTRONIC_PARKING,WHOLE_DAY,SUN_&_PH_FR_7AM-10.30PM,1,12,2.15,0,420,1.338948678,103.6972875,JURONG WEST,3.0
339,BLK 686 JURONG WEST CENTRAL 1,13624.8076,35994.9675,MULTI-STOREY_CAR_PARK,ELECTRONIC_PARKING,WHOLE_DAY,SUN_&_PH_FR_7AM-10.30PM,1,6,2.15,0,573,1.34179679,103.704149,JURONG WEST,3.0
340,BLK 624A JURONG WEST STREET 61,12989.0554,35920.273,MULTI-STOREY_CAR_PARK,ELECTRONIC_PARKING,WHOLE_DAY,SUN_&_PH_FR_7AM-10.30PM,1,12,2.15,0,470,1.341120971,103.6984364,JURONG WEST,3.0
341,BLK 601A JURONG WEST STREET 62,13134.6714,35737.8133,MULTI-STOREY_CAR_PARK,ELECTRONIC_PARKING,WHOLE_DAY,SUN_&_PH_FR_7AM-10.30PM,1,19,2.15,0,1034,1.339470947,103.6997449,JURONG WEST,3.0
342,BLK 635A JURONG WEST STREET 65,13026.1447,36061.7744,MULTI-STOREY_CAR_PARK,ELECTRONIC_PARKING,WHOLE_DAY,SUN_&_PH_FR_7AM-10.30PM,1,12,2.15,0,493,1.342400674,103.6987696,JURONG WEST,3.0
343,BLK 617A JURONG WEST STREET 65,13172.241,35894.5938,MULTI-STOREY_CAR_PARK,ELECTRONIC_PARKING,WHOLE_DAY,SUN_&_PH_FR_7AM-10.30PM,1,12,2.15,0,488,1.340888829,103.7000824,JURONG WEST,3.0
344,BLK 659 JURONG WEST ST 65,13399.316,35488.4096,MULTI-STOREY_CAR_PARK,ELECTRONIC_PARKING,WHOLE_DAY,SUN_&_PH_FR_7AM-10.30PM,1,12,2.15,0,534,1.337215564,103.702123,JURONG WEST,3.0
345,BLK 660 JURONG WEST ST 64,13617.7777,35278.113,MULTI-STOREY_CAR_PARK,ELECTRONIC_PARKING,WHOLE_DAY,SUN_&_PH_FR_7AM-10.30PM,1,12,2.15,0,954,1.335313825,103.7040861,JURONG WEST,3.0
346,BLK 629A JURONG WEST ST 65,13110.6908,36127.6675,MULTI-STOREY_CAR_PARK,ELECTRONIC_PARKING,WHOLE_DAY,SUN_&_PH_FR_7AM-10.30PM,1,12,2.15,0,430,1.342996628,103.6995293,JURONG WEST,3.0
347,BLK 273 JURONG WEST AVENUE 3,13477.0963,37120.2881,MULTI-STOREY_CAR_PARK,ELECTRONIC_PARKING,WHOLE_DAY,SUN_&_PH_FR_7AM-10.30PM,1,13,2.15,0,356,1.351973692,103.7028211,JURONG WEST,3.0
348,BLK 682 JURONG WEST CENTRAL 1,13715.4817,36231.4554,MULTI-STOREY_CAR_PARK,ELECTRONIC_PARKING,WHOLE_DAY,SUN_&_PH_FR_7AM-10.30PM,1,10,2.15,0,627,1.34393554,103.7049636,JURONG WEST,3.0
349,BLK 657 JURONG WEST STREET 65,13269.4787,35285.1266,MULTI-STOREY_CAR_PARK,ELECTRONIC_PARKING,WHOLE_DAY,SUN_&_PH_FR_7AM-10.30PM,1,14,2.15,0,925,1.335377086,103.7009565,JURONG WEST,3.0
350,BLK 651 JURONG WEST STREET 61,12848.9764,35472.8488,MULTI-STOREY_CAR_PARK,ELECTRONIC_PARKING,WHOLE_DAY,SUN_&_PH_FR_7AM-10.30PM,1,12,2.15,0,457,1.337074567,103.6971779,JURONG WEST,3.0
351,BLK 674 JURONG WEST STREET 65,13451.5242,36321.3672,MULTI-STOREY_CAR_PARK,ELECTRONIC_PARKING,WHOLE_DAY,SUN_&_PH_FR_7AM-10.30PM,1,12,2.15,0,600,1.344748542,103.7025917,JURONG WEST,3.0
352,BLK 276 JURONG WEST STREET 25,13584.64,37295.9859,MULTI-STOREY_CAR_PARK,ELECTRONIC_PARKING,WHOLE_DAY,SUN_&_PH_FR_7AM-10.30PM,1,12,2.15,0,328,1.353562688,103.7037874,JURONG WEST,3.0
353,BLK 655 JURONG WEST STREET 61,12947.1123,35275.2364,MULTI-STOREY_CAR_PARK,ELECTRONIC_PARKING,WHOLE_DAY,SUN_&_PH_FR_7AM-10.30PM,1,12,2.15,0,782,1.335287484,103.6980598,JURONG WEST,3.0
354,BLK 673 JURONG WEST ST 65,13232.9976,36272.1883,MULTI-STOREY_CAR_PARK,ELECTRONIC_PARKING,WHOLE_DAY,SUN_&_PH_FR_7AM-10.30PM,1,12,2.15,0,510,1.34430368,103.7006282,JURONG WEST,3.0
355,BLK 675 JURONG WEST ST 64,13511.8473,36412.4785,MULTI-STOREY_CAR_PARK,ELECTRONIC_PARKING,WHOLE_DAY,SUN_&_PH_FR_7AM-10.30PM,1,11,2.15,0,571,1.345572547,103.7031337,JURONG WEST,3.0
356,BLK 676 JURONG WEST ST 64,13673.3012,36493.4353,MULTI-STOREY_CAR_PARK,ELECTRONIC_PARKING,WHOLE_DAY,SUN_&_PH_FR_7AM-10.30PM,1,11,2.15,0,481,1.346304767,103.7045845,JURONG WEST,3.0
357,BLK 990 JURONG WEST ST 93,12683.1316,35279.6451,MULTI-STOREY_CAR_PARK,ELECTRONIC_PARKING,WHOLE_DAY,SUN_&_PH_FR_7AM-10.30PM,1,13,2.1,0,646,1.335327222,103.6956878,JURONG WEST,3.0
358,BLK 986 JURONG WEST ST 93,12551.4555,35465.1802,MULTI-STOREY_CAR_PARK,ELECTRONIC_PARKING,WHOLE_DAY,SUN_&_PH_FR_7AM-10.30PM,1,14,2.1,0,641,1.337005064,103.6945045,JURONG WEST,3.0
359,BLK 679 JURONG WEST CENTRAL 1,13838.2635,36303.7106,MULTI-STOREY_CAR_PARK,ELECTRONIC_PARKING,WHOLE_DAY,SUN_&_PH_FR_7AM-10.30PM,1,12,2.15,0,564,1.344589047,103.7060668,JURONG WEST,3.0
360,BLK 271 JURONG WEST ST 24,13595.4624,36957.2314,MULTI-STOREY_CAR_PARK,ELECTRONIC_PARKING,WHOLE_DAY,SUN_&_PH_FR_7AM-10.30PM,1,10,2.15,0,379,1.350499126,103.7038848,JURONG WEST,3.0
361,BLK 638A JURONG WEST ST 61,12894.0173,36018.9264,MULTI-STOREY_CAR_PARK,ELECTRONIC_PARKING,WHOLE_DAY,NO,1,8,2.15,0,188,1.342013107,103.6975824,JURONG WEST,3.0
362,697 JURONG WEST CTRL 3,14062.3852,35973.1774,MULTI-STOREY_CAR_PARK,ELECTRONIC_PARKING,WHOLE_DAY,NO,1,16,2.15,0,410,1.341599934,103.7080809,JURONG WEST,3.0
363,BLK 684 JURONG WEST ST 64,13598.5325,36287.4517,MULTI-STOREY_CAR_PARK,ELECTRONIC_PARKING,WHOLE_DAY,SUN_&_PH_FR_7AM-10.30PM,1,13,2.15,0,650,1.344441894,103.7039127,JURONG WEST,3.0
364,BLK 664 JURONG WEST ST 64,13512.8021,35739.3606,MULTI-STOREY_CAR_PARK,ELECTRONIC_PARKING,WHOLE_DAY,SUN_&_PH_FR_7AM-10.30PM,1,13,2.15,0,704,1.339485124,103.7031426,JURONG WEST,3.0
365,BLK 663 JURONG WEST ST 65,13359.4862,35709.3734,MULTI-STOREY_CAR_PARK,ELECTRONIC_PARKING,WHOLE_DAY,SUN_&_PH_FR_7AM-10.30PM,1,13,2.15,0,702,1.339213857,103.701765,JURONG WEST,3.0
366,BLK 669 JURONG WEST ST 64,13497.6635,36071.1758,MULTI-STOREY_CAR_PARK,ELECTRONIC_PARKING,WHOLE_DAY,SUN_&_PH_FR_7AM-10.30PM,1,12,2.1,0,740,1.342485928,103.7030065,JURONG WEST,3.0
367,BLK 667 JURONG WEST ST 65,13330.2931,35944.9436,MULTI-STOREY_CAR_PARK,ELECTRONIC_PARKING,WHOLE_DAY,SUN_&_PH_FR_7AM-10.30PM,1,12,2.1,0,550,1.341344251,103.7015026,JURONG WEST,3.0
368,BLK 650 JURONG WEST ST 61,12808.9157,35648.0735,MULTI-STOREY_CAR_PARK,ELECTRONIC_PARKING,WHOLE_DAY,SUN_&_PH_FR_7AM-10.30PM,1,12,2.15,0,450,1.338659212,103.6968179,JURONG WEST,3.0
369,BLK 814 JELLICOE ROAD,31175.747,32165.4237,MULTI-STOREY_CAR_PARK,ELECTRONIC_PARKING,WHOLE_DAY,SUN_&_PH_FR_7AM-10.30PM,1,12,2.15,0,325,1.30716702,103.8618542,KALLANG,3.0
370,BLK 37A JALAN RUMAH TINGGI,25441.3095,30196.268,MULTI-STOREY_CAR_PARK,ELECTRONIC_PARKING,WHOLE_DAY,SUN_&_PH_FR_7AM-10.30PM,1,12,2.15,0,426,1.289358727,103.8103277,BUKIT MERAH,3.0
371,BLK 372A JURONG EAST ST 32,16739.1947,36793.4383,MULTI-STOREY_CAR_PARK,ELECTRONIC_PARKING,WHOLE_DAY,SUN_&_PH_FR_7AM-10.30PM,1,8,2.15,0,241,1.349019191,103.7321332,JURONG EAST,3.0
372,560 JURONG WEST ST 42,15352.863,37320.212,MULTI-STOREY_CAR_PARK,ELECTRONIC_PARKING,WHOLE_DAY,SUN_&_PH_FR_7AM-10.30PM,1,12,2.15,0,398,1.353782582,103.719676,JURONG WEST,3.0
373,BLK 132 JURONG GATEWAY ROAD,17576.3345,35155.1132,MULTI-STOREY_CAR_PARK,ELECTRONIC_PARKING,WHOLE_DAY,NO,1,8,2.0,0,427,1.334203083,103.739656,JURONG EAST,3.0
374,505A JURONG WEST ST 52,15155.3093,36830.6309,MULTI-STOREY_CAR_PARK,ELECTRONIC_PARKING,WHOLE_DAY,NO,1,13,2.15,0,560,1.349354909,103.717901,JURONG WEST,3.0
375,BLK 901 JURONG WEST STREET 91,11666.8136,35782.3574,MULTI-STOREY_CAR_PARK,ELECTRONIC_PARKING,WHOLE_DAY,SUN_&_PH_FR_7AM-10.30PM,1,5,1.9,0,497,1.339873027,103.6865554,JURONG WEST,3.0
376,BLK 354 JURONG EAST AVE 1,16707.915,36290.7825,MULTI-STOREY_CAR_PARK,ELECTRONIC_PARKING,WHOLE_DAY,SUN_&_PH_FR_7AM-10.30PM,1,10,1.9,0,360,1.344473346,103.7318524,JURONG EAST,3.0
377,BLK 962A JURONG WEST STREET 91,12264.1306,36023.6972,MULTI-STOREY_CAR_PARK,ELECTRONIC_PARKING,WHOLE_DAY,SUN_&_PH_FR_7AM-10.30PM,1,9,1.9,0,469,1.34205593,103.6919225,JURONG WEST,3.0
378,BLK 967 JURONG WEST 91 JURONG WEST STREET 93,12422.54,35944.981,MULTI-STOREY_CAR_PARK,ELECTRONIC_PARKING,WHOLE_DAY,SUN_&_PH_FR_7AM-10.30PM,1,7,2.15,0,378,1.341344133,103.6933459,JURONG WEST,3.0
379,BLK 712B JURONG WEST ST 71 JURONG WEST STREET 71,12812.9485,36110.9309,MULTI-STOREY_CAR_PARK,ELECTRONIC_PARKING,WHOLE_DAY,NO,1,5,2.15,0,72,1.34284512,103.6968539,JURONG WEST,3.0
380,BLK 841A JURONG WEST STREET 81,12397.1268,36260.1612,MULTI-STOREY_CAR_PARK,ELECTRONIC_PARKING,WHOLE_DAY,SUN_&_PH_FR_7AM-10.30PM,1,10,1.9,0,335,1.344194489,103.6931174,JURONG WEST,3.0
381,BLK 832A JURONG WEST STREET 81,12554.243,36272.307,MULTI-STOREY_CAR_PARK,ELECTRONIC_PARKING,WHOLE_DAY,SUN_&_PH_FR_7AM-10.30PM,1,11,1.9,0,519,1.344304412,103.6945292,JURONG WEST,3.0
382,BLK 750A JURONG WEST STREET 73,13002.919,36619.5998,MULTI-STOREY_CAR_PARK,ELECTRONIC_PARKING,WHOLE_DAY,SUN_&_PH_FR_7AM-10.30PM,1,10,1.9,0,350,1.347445424,103.6985606,JURONG WEST,3.0
383,BLK 702A JURONG WEST STREET 71,12620.3435,35969.4867,MULTI-STOREY_CAR_PARK,ELECTRONIC_PARKING,WHOLE_DAY,SUN_&_PH_FR_7AM-10.30PM,1,10,1.9,0,458,1.341565855,103.6951233,JURONG WEST,3.0
384,BLK 821A JURONG WEST STREET 81,12599.8443,36515.2018,MULTI-STOREY_CAR_PARK,ELECTRONIC_PARKING,WHOLE_DAY,SUN_&_PH_FR_7AM-10.30PM,1,11,2.0,0,470,1.346501084,103.6949388,JURONG WEST,3.0
385,BLK 240C JURONG EAST AVE 1,17884.6894,35867.6356,MULTI-STOREY_CAR_PARK,ELECTRONIC_PARKING,WHOLE_DAY,SUN_&_PH_FR_7AM-10.30PM,1,10,2.15,0,139,1.34064698,103.7424265,JURONG EAST,3.0
386,BLK 734A JURONG WEST STREET 73,13270.9893,36409.7045,MULTI-STOREY_CAR_PARK,ELECTRONIC_PARKING,WHOLE_DAY,SUN_&_PH_FR_7AM-10.30PM,1,11,2.0,0,441,1.345547343,103.7009695,JURONG WEST,3.0
387,BLK 760A JURONG WEST STREET 74,13182.8539,36856.8882,MULTI-STOREY_CAR_PARK,ELECTRONIC_PARKING,WHOLE_DAY,SUN_&_PH_FR_7AM-10.30PM,1,11,1.9,0,374,1.349591459,103.7001773,JURONG WEST,3.0
388,BLK 844A JURONG WEST ST 81,12322.8738,36443.2248,MULTI-STOREY_CAR_PARK,ELECTRONIC_PARKING,WHOLE_DAY,SUN_&_PH_FR_7AM-10.30PM,1,10,2.0,0,528,1.345850008,103.6924501,JURONG WEST,3.0
389,BLK 865A JURONG WEST ST 81,12613.8496,36926.4932,MULTI-STOREY_CAR_PARK,ELECTRONIC_PARKING,WHOLE_DAY,SUN_&_PH_FR_7AM-10.30PM,1,8,2.0,0,371,1.350220653,103.6950644,JURONG WEST,3.0
390,BLK 854A JURONG WEST ST 81,12771.2097,36650.4919,MULTI-STOREY_CAR_PARK,ELECTRONIC_PARKING,WHOLE_DAY,SUN_&_PH_FR_7AM-10.30PM,1,10,2.0,0,281,1.347724683,103.6964786,JURONG WEST,3.0
391,BLK 859A JURONG WEST ST 81,12744.1045,36899.5648,MULTI-STOREY_CAR_PARK,ELECTRONIC_PARKING,WHOLE_DAY,SUN_&_PH_FR_7AM-10.30PM,1,8,2.0,0,225,1.34997719,103.6962349,JURONG WEST,3.0
392,BLK 764A JURONG WEST ST 74,13061.8605,36897.8976,MULTI-STOREY_CAR_PARK,ELECTRONIC_PARKING,WHOLE_DAY,SUN_&_PH_FR_7AM-10.30PM,1,8,2.0,0,354,1.349962272,103.6990901,JURONG WEST,3.0
393,BLK 692A JURONG WEST CENTRAL 1,13965.0447,35981.9547,MULTI-STOREY_CAR_PARK,ELECTRONIC_PARKING,WHOLE_DAY,NO,1,12,2.15,0,607,1.341679268,103.7072062,JURONG WEST,3.0
394,BLK 691A JURONG WEST CENTRAL 1,13819.7717,36058.9311,MULTI-STOREY_CAR_PARK,ELECTRONIC_PARKING,WHOLE_DAY,SUN_&_PH_FR_7AM-10.30PM,1,10,2.1,0,600,1.342375345,103.7059008,JURONG WEST,3.0
395,BLK 274A TOH GUAN ROAD,18444.8766,35967.1503,MULTI-STOREY_CAR_PARK,ELECTRONIC_PARKING,WHOLE_DAY,SUN_&_PH_FR_7AM-10.30PM,1,12,2.15,0,485,1.341547137,103.7474601,JURONG EAST,3.0
396,BLK 287E JURONG EAST STREET 21,18071.4794,35523.767,MULTI-STOREY_CAR_PARK,ELECTRONIC_PARKING,WHOLE_DAY,SUN_&_PH_FR_7AM-10.30PM,1,12,2.15,0,595,1.33753722,103.7441051,JURONG EAST,3.0
397,BLK 285E TOH GUAN ROAD,18377.6747,35526.0278,MULTI-STOREY_CAR_PARK,ELECTRONIC_PARKING,WHOLE_DAY,SUN_&_PH_FR_7AM-10.30PM,1,12,2.15,0,462,1.337557765,103.7468564,JURONG EAST,3.0
398,BLK 286E TOH GUAN ROAD,18186.6838,35712.1634,MULTI-STOREY_CAR_PARK,ELECTRONIC_PARKING,WHOLE_DAY,SUN_&_PH_FR_7AM-10.30PM,1,12,2.15,0,491,1.339241046,103.7451402,JURONG EAST,3.0
399,BLK 288F JURONG EAST STREET 21,17966.9948,35762.0649,MULTI-STOREY_CAR_PARK,ELECTRONIC_PARKING,WHOLE_DAY,SUN_&_PH_FR_7AM-10.30PM,1,12,2.15,0,444,1.339692264,103.7431661,JURONG EAST,3.0
400,BLK 282A TOH GUAN ROAD,18403.3359,35807.1678,MULTI-STOREY_CAR_PARK,ELECTRONIC_PARKING,WHOLE_DAY,SUN_&_PH_FR_7AM-10.30PM,1,12,2.15,0,500,1.340100301,103.7470869,JURONG EAST,3.0
401,BLK 267A TOH GUAN ROAD,18166.4546,35964.0009,MULTI-STOREY_CAR_PARK,ELECTRONIC_PARKING,WHOLE_DAY,SUN_&_PH_FR_7AM-10.30PM,1,12,2.15,0,480,1.341518565,103.7449583,JURONG EAST,3.0
402,BLK 273A TOH GUAN ROAD,18276.4189,36061.6102,MULTI-STOREY_CAR_PARK,ELECTRONIC_PARKING,WHOLE_DAY,SUN_&_PH_FR_7AM-10.30PM,1,12,2.15,0,450,1.342401344,103.7459464,JURONG EAST,3.0
403,BLK 647A JURONG WEST STREET 61,12813.2745,35771.8721,MULTI-STOREY_CAR_PARK,ELECTRONIC_PARKING,WHOLE_DAY,SUN_&_PH_FR_7AM-10.30PM,1,10,2.15,0,384,1.339778802,103.696857,JURONG WEST,3.0
404,BLK 640A JURONG WEST STREET 61,12722.6845,35766.8461,MULTI-STOREY_CAR_PARK,ELECTRONIC_PARKING,WHOLE_DAY,SUN_&_PH_FR_7AM-10.30PM,1,10,2.15,0,504,1.339733303,103.696043,JURONG WEST,3.0
405,BLK 334 KRETA AYER BASEMENT CAR PARK,29009.336,29350.1611,OTHERS,ELECTRONIC_PARKING,WHOLE_DAY,NO,1,1,2.1,1,530,1.281706922,103.8423879,OUTRAM,10.0
406,BLK 335 KRETA AYER MSCP,29110.783,29377.6082,MULTI-STOREY_CAR_PARK,ELECTRONIC_PARKING,WHOLE_DAY,NO,1,2,1.9,0,488,1.28195514,103.8432994,OUTRAM,3.0
407,BLK 65A KALLANG BAHRU,31984.8599,33610.8985,MULTI-STOREY_CAR_PARK,ELECTRONIC_PARKING,WHOLE_DAY,SUN_&_PH_FR_7AM-10.30PM,1,12,2.15,0,304,1.320239288,103.8691246,KALLANG,3.0
408,BLK 49A WHAMPOA SOUTH,31686.3712,33999.0332,MULTI-STOREY_CAR_PARK,ELECTRONIC_PARKING,WHOLE_DAY,SUN_&_PH_FR_7AM-10.30PM,1,12,2.0,0,415,1.323749477,103.8664426,KALLANG,3.0
409,BLK 671 KLANG LANE,30136.2998,32358.8836,MULTI-STOREY_CAR_PARK,ELECTRONIC_PARKING,WHOLE_DAY,NO,1,10,2.15,0,213,1.308916692,103.8525143,ROCHOR,3.0
410,BLK 145A BEDOK RESERVOIR ROAD,36690.7665,35134.9344,MULTI-STOREY_CAR_PARK,ELECTRONIC_PARKING,WHOLE_DAY,NO,1,4,2.15,0,254,1.334021142,103.9114101,BEDOK,3.0
411,BLK 37A CAMBRIDGE ROAD,29722.4759,33152.4737,MULTI-STOREY_CAR_PARK,ELECTRONIC_PARKING,WHOLE_DAY,SUN_&_PH_FR_7AM-10.30PM,1,12,2.15,0,268,1.316093667,103.8487959,KALLANG,3.0
412,BLK 14A FARRER PARK RD,30084.3192,32664.3631,MULTI-STOREY_CAR_PARK,ELECTRONIC_PARKING,WHOLE_DAY,NO,1,12,2.15,0,470,1.311679344,103.8520472,KALLANG,3.0
413,BLK 31 KELANTAN LANE MSCP,30613.3563,32065.8984,MULTI-STOREY_CAR_PARK,ELECTRONIC_PARKING,WHOLE_DAY,SUN_&_PH_FR_7AM-10.30PM,1,7,1.8,0,358,1.306267001,103.8568008,ROCHOR,3.0
414,BLK 56A CASSIA CRESCENT,33634.3718,32491.1189,MULTI-STOREY_CAR_PARK,ELECTRONIC_PARKING,WHOLE_DAY,SUN_&_PH_FR_7AM-10.30PM,1,12,2.0,0,455,1.310112141,103.8839461,GEYLANG,3.0
415,BLK 93A JALAN DUA,34056.2683,32342.8113,MULTI-STOREY_CAR_PARK,ELECTRONIC_PARKING,WHOLE_DAY,SUN_&_PH_FR_7AM-10.30PM,1,9,2.0,0,328,1.30877082,103.8877371,GEYLANG,3.0
416,BLK 11A PINE CLOSE,33523.1191,32313.2942,MULTI-STOREY_CAR_PARK,ELECTRONIC_PARKING,WHOLE_DAY,SUN_&_PH_FR_7AM-10.30PM,1,12,2.15,0,455,1.308503978,103.8829465,GEYLANG,3.0
417,BLK 49A JALAN TIGA,33792.0373,32312.0363,MULTI-STOREY_CAR_PARK,ELECTRONIC_PARKING,WHOLE_DAY,NO,1,14,2.15,0,432,1.308492553,103.8853628,GEYLANG,3.0
418,BLK 125A KIM TIAN ROAD,27480.5391,29500.8137,MULTI-STOREY_CAR_PARK,ELECTRONIC_PARKING,7AM-10.30PM,SUN_&_PH_FR_7AM-10.30PM,0,10,1.9,0,251,1.283069383,103.828651,BUKIT MERAH,3.0
419,BLK 120B KIM TIAN PLACE,27349.7876,29542.5114,MULTI-STOREY_CAR_PARK,ELECTRONIC_PARKING,WHOLE_DAY,SUN_&_PH_FR_7AM-10.30PM,1,14,2.15,0,423,1.28344648,103.8274762,BUKIT MERAH,3.0
420,BLK 131A KIM TIAN ROAD,27480.2057,29232.1227,MULTI-STOREY_CAR_PARK,ELECTRONIC_PARKING,WHOLE_DAY,SUN_&_PH_FR_7AM-10.30PM,1,13,2.15,0,463,1.280639435,103.828648,BUKIT MERAH,3.0
421,BLK 119A KIM TIAN ROAD,27329.8822,29325.2282,MULTI-STOREY_CAR_PARK,ELECTRONIC_PARKING,WHOLE_DAY,SUN_&_PH_FR_7AM-10.30PM,1,5,2.15,0,460,1.281481446,103.8272973,BUKIT MERAH,3.0
422,BLK 126 KIM TIAN ROAD,27570.7265,29441.0716,MULTI-STOREY_CAR_PARK,ELECTRONIC_PARKING,WHOLE_DAY,NO,1,10,2.15,0,418,1.282529097,103.8294614,BUKIT MERAH,3.0
423,BLK 127 KIM TIAN ROAD,27546.4706,29366.694,MULTI-STOREY_CAR_PARK,ELECTRONIC_PARKING,WHOLE_DAY,NO,1,6,2.15,0,418,1.281856452,103.8292434,BUKIT MERAH,3.0
424,BLK 64 LENGKOK BAHRU,25985.8189,30193.5347,MULTI-STOREY_CAR_PARK,ELECTRONIC_PARKING,WHOLE_DAY,SUN_&_PH_FR_7AM-10.30PM,1,8,2.15,0,177,1.289334048,103.8152203,BUKIT MERAH,3.0
425,BLK 157A MEI LING STREET,24676.3894,30639.2696,MULTI-STOREY_CAR_PARK,ELECTRONIC_PARKING,WHOLE_DAY,SUN_&_PH_FR_7AM-10.30PM,1,11,2.15,0,360,1.293365005,103.8034545,QUEENSTOWN,3.0
426,BLK 161A MEI LING ST,24684.8066,30491.8693,MULTI-STOREY_CAR_PARK,ELECTRONIC_PARKING,WHOLE_DAY,SUN_&_PH_FR_7AM-10.30PM,1,7,2.15,0,412,1.29203197,103.8035302,QUEENSTOWN,3.0
427,BLK 28A BALAM ROAD,33981.2699,34740.5471,MULTI-STOREY_CAR_PARK,ELECTRONIC_PARKING,WHOLE_DAY,NO,1,10,2.0,0,406,1.3304551,103.8870636,GEYLANG,3.0
428,BLK 52A PIPIT ROAD,33873.4028,34064.3335,MULTI-STOREY_CAR_PARK,ELECTRONIC_PARKING,WHOLE_DAY,SUN_&_PH_FR_7AM-10.30PM,1,12,2.15,0,328,1.324339688,103.8860942,GEYLANG,3.0
429,BLK 66A CIRCUIT ROAD,34087.5573,34277.3707,MULTI-STOREY_CAR_PARK,ELECTRONIC_PARKING,WHOLE_DAY,SUN_&_PH_FR_7AM-10.30PM,1,11,2.15,0,406,1.326266278,103.8880186,GEYLANG,3.0
430,BLK 31A CIRCUIT ROAD,33805.7605,34616.0975,MULTI-STOREY_CAR_PARK,ELECTRONIC_PARKING,WHOLE_DAY,SUN_&_PH_FR_7AM-10.30PM,1,11,2.15,0,412,1.329329657,103.8854866,GEYLANG,3.0
431,BLK 17 CIRCUIT ROAD,34149.4724,34667.1985,MULTI-STOREY_CAR_PARK,ELECTRONIC_PARKING,WHOLE_DAY,SUN_&_PH_FR_7AM-10.30PM,1,15,2.15,0,406,1.329791728,103.888575,GEYLANG,3.0
432,BLK 82 CIRCUIT ROAD,34318.7769,34060.4025,MULTI-STOREY_CAR_PARK,ELECTRONIC_PARKING,WHOLE_DAY,SUN_&_PH_FR_7AM-10.30PM,1,5,2.15,0,406,1.324304048,103.8900962,GEYLANG,3.0
433,BLK 113 MCNAIR ROAD,30951.0578,33699.6625,MULTI-STOREY_CAR_PARK,ELECTRONIC_PARKING,WHOLE_DAY,SUN_&_PH_FR_7AM-10.30PM,1,12,2.15,0,369,1.321042155,103.8598354,KALLANG,3.0
434,BLK 108A MCNAIR ROAD,30906.0026,33644.1601,MULTI-STOREY_CAR_PARK,ELECTRONIC_PARKING,WHOLE_DAY,SUN_&_PH_FR_7AM-10.30PM,1,12,2.15,0,363,1.320540215,103.8594305,KALLANG,3.0
435,BLK 65A MARINE DRIVE,36529.5332,31693.5008,MULTI-STOREY_CAR_PARK,ELECTRONIC_PARKING,WHOLE_DAY,NO,1,5,2.0,0,363,1.302898106,103.9099603,MARINE PARADE,3.0
436,BLK 89 MARINE PARADE CTRL,36133.3286,31515.2207,MULTI-STOREY_CAR_PARK,ELECTRONIC_PARKING,WHOLE_DAY,NO,1,10,1.9,0,339,1.301285911,103.9064002,MARINE PARADE,3.0
437,BLK 35A MARINE CRESCENT,36854.4147,31775.1611,MULTI-STOREY_CAR_PARK,ELECTRONIC_PARKING,WHOLE_DAY,NO,1,6,2.15,0,363,1.303636521,103.9128796,MARINE PARADE,3.0
438,BLK 12A MARINE TERRACE,37128.3266,31854.8695,MULTI-STOREY_CAR_PARK,ELECTRONIC_PARKING,WHOLE_DAY,SUN_&_PH_FR_7AM-10.30PM,1,4,2.05,0,363,1.304357296,103.9153408,MARINE PARADE,3.0
439,BLK 16A MARINE TERRACE,37001.0531,31814.983,MULTI-STOREY_CAR_PARK,ELECTRONIC_PARKING,WHOLE_DAY,SUN_&_PH_FR_7AM-10.30PM,1,4,2.05,0,363,1.303996614,103.9141972,MARINE PARADE,3.0
440,BLK 47A MARINE CRESCENT,36809.7582,31975.4666,MULTI-STOREY_CAR_PARK,ELECTRONIC_PARKING,7AM-10.30PM,NO,0,2,2.15,0,363,1.305448024,103.9124784,MARINE PARADE,3.0
441,BLK 77A MARINE DRIVE,36343.2232,31627.1688,MULTI-STOREY_CAR_PARK,ELECTRONIC_PARKING,WHOLE_DAY,NO,1,11,2.15,0,319,1.302298274,103.9082862,MARINE PARADE,3.0
442,BLK 13 NORTH BRIDGE ROAD MSCP,31304.4327,31815.6323,MULTI-STOREY_CAR_PARK,ELECTRONIC_PARKING,WHOLE_DAY,SUN_&_PH_FR_7AM-10.30PM,1,10,1.9,0,409,1.304003617,103.8630104,KALLANG,3.0
443,BLK 601 TAMPINES AVE 9,39457.9515,38139.8942,MULTI-STOREY_CAR_PARK,ELECTRONIC_PARKING,WHOLE_DAY,SUN_&_PH_FR_7AM-10.30PM,1,2,2.15,0,463,1.361195965,103.9362759,TAMPINES,3.0
444,BLK 605 TAMPINES ST 61,39463.5572,38242.0507,MULTI-STOREY_CAR_PARK,ELECTRONIC_PARKING,WHOLE_DAY,SUN_&_PH_FR_7AM-10.30PM,1,2,2.15,0,594,1.362119829,103.9363263,TAMPINES,3.0
445,BLK 609 TAMPINES NTH DR 1,39454.1027,38455.323,MULTI-STOREY_CAR_PARK,ELECTRONIC_PARKING,WHOLE_DAY,SUN_&_PH_FR_7AM-10.30PM,1,4,2.15,0,786,1.364048588,103.9362414,TAMPINES,3.0
446,613 TAMPINES NTH DR 1,39451.0111,38606.4942,MULTI-STOREY_CAR_PARK,ELECTRONIC_PARKING,WHOLE_DAY,SUN_&_PH_FR_7AM-10.30PM,1,8,2.15,0,520,1.365415725,103.9362137,TAMPINES,3.0
447,BLK 618 TAMPINES STREET 61,39861.432,38191.3771,MULTI-STOREY_CAR_PARK,ELECTRONIC_PARKING,WHOLE_DAY,NO,1,1,2.15,0,540,1.361661399,103.9399015,TAMPINES,3.0
448,BLK 475 CHOA CHU KANG AVE 3,17475.2563,39985.5474,OTHERS,ELECTRONIC_PARKING,WHOLE_DAY,NO,1,4,2.15,0,298,1.377887715,103.7387461,CHOA CHU KANG,10.0
449,BLK 533A CHOA CHU KANG ST 51,17989.9222,41499.0296,OTHERS,ELECTRONIC_PARKING,WHOLE_DAY,NO,1,8,2.0,0,318,1.391575269,103.7433702,CHOA CHU KANG,10.0
450,BLK 399 YUNG SHENG RD,15435.0187,35211.8516,OTHERS,ELECTRONIC_PARKING,WHOLE_DAY,NO,1,1,2.1,1,391,1.334715391,103.7204151,JURONG WEST,10.0
451,BLK 762A JURONG WEST ST 75,12930.5286,36787.2543,OTHERS,ELECTRONIC_PARKING,WHOLE_DAY,NO,1,8,2.0,0,354,1.348961591,103.6979101,JURONG WEST,10.0
452,BLK 168 PUNGGOL FIELD,36861.9823,41783.2542,OTHERS,ELECTRONIC_PARKING,NO,NO,0,2,2.15,1,401,1.394146066,103.9129505,PUNGGOL,10.0
453,BLK 446A FAJAR ROAD,21106.05,40635.5878,OTHERS,ELECTRONIC_PARKING,WHOLE_DAY,NO,1,8,2.15,0,491,1.383767523,103.7713712,BUKIT PANJANG,10.0
454,BLK 57 DAWSON RD,25514.1791,30563.4425,OTHERS,ELECTRONIC_PARKING,WHOLE_DAY,NO,1,3,2.15,0,170,1.29267933,103.8109824,QUEENSTOWN,10.0
455,BLK 258 PASIR RIS ST 21,42604.5156,38773.6442,OTHERS,ELECTRONIC_PARKING,WHOLE_DAY,NO,1,3,1.9,0,422,1.366925978,103.9645502,PASIR RIS,10.0
456,BLK 624A ELIAS RD,40065.8952,39988.2066,MULTI-STOREY_CAR_PARK,ELECTRONIC_PARKING,WHOLE_DAY,NO,1,9,2.0,0,408,1.377911172,103.9417394,PASIR RIS,3.0
457,BLK 734 PASIR RIS ST 72,39453.4352,40190.3477,OTHERS,ELECTRONIC_PARKING,WHOLE_DAY,NO,1,8,2.0,0,360,1.379739506,103.9362361,PASIR RIS,10.0
458,BLK 118 RIVERVALE DR,35624.873,40823.859,OTHERS,ELECTRONIC_PARKING,WHOLE_DAY,NO,1,12,2.15,0,410,1.385469998,103.9018339,SENGKANG,10.0
459,BLK 866A TAMPINES ST 83,39261.5396,37495.72,OTHERS,ELECTRONIC_PARKING,WHOLE_DAY,NO,1,1,2.15,1,526,1.355370368,103.9345108,TAMPINES,10.0
460,BLK 548 WOODLANDS DR 44,23640.69,45832.6288,OTHERS,ELECTRONIC_PARKING,WHOLE_DAY,NO,1,6,2.15,0,482,1.430768169,103.7941461,WOODLANDS,10.0
461,BLK 768 WOODLANDS AVE 6,24076.3392,47457.4236,OTHERS,ELECTRONIC_PARKING,WHOLE_DAY,NO,1,2,2.15,0,449,1.445462285,103.7980606,WOODLANDS,10.0
462,BLK 888A WOODLANDS DR 50,23752.5835,46647.3671,OTHERS,ELECTRONIC_PARKING,WHOLE_DAY,NO,1,7,2.15,0,482,1.438136382,103.7951514,WOODLANDS,10.0
463,BLK 883A WOODLANDS ST 82,23295.7544,47198.0451,OTHERS,ELECTRONIC_PARKING,WHOLE_DAY,NO,1,8,2.15,0,457,1.44311644,103.7910463,WOODLANDS,10.0
464,BLK 174 PUNGGOL FIELD,36567.6957,42059.8507,MULTI-STOREY_CAR_PARK,ELECTRONIC_PARKING,WHOLE_DAY,SUN_&_PH_FR_7AM-10.30PM,1,7,2.15,0,401,1.396647592,103.9103062,PUNGGOL,3.0
465,BLK 175 PUNGGOL FIELD,36383.4393,42222.0385,MULTI-STOREY_CAR_PARK,ELECTRONIC_PARKING,WHOLE_DAY,SUN_&_PH_FR_7AM-10.30PM,1,7,2.15,0,548,1.398114413,103.9086506,PUNGGOL,3.0
466,BLK 137 EDGEDALE PLAINS,36467.5455,41586.9263,MULTI-STOREY_CAR_PARK,ELECTRONIC_PARKING,WHOLE_DAY,SUN_&_PH_FR_7AM-10.30PM,1,4,2.15,0,401,1.392370667,103.9094061,PUNGGOL,3.0
467,BLK 131 EDGEDALE PLAINS,36576.967,41721.609,MULTI-STOREY_CAR_PARK,ELECTRONIC_PARKING,WHOLE_DAY,SUN_&_PH_FR_7AM-10.30PM,1,4,2.15,0,401,1.393588655,103.9103894,PUNGGOL,3.0
468,BLK 292 PUNGGOL CENTRAL,35982.6704,42695.5596,MULTI-STOREY_CAR_PARK,ELECTRONIC_PARKING,WHOLE_DAY,SUN_&_PH_FR_7AM-10.30PM,1,9,2.15,0,760,1.402396878,103.9050495,PUNGGOL,3.0
469,BLK 171 EDGEDALE PLAINS,36821.298,41862.4746,MULTI-STOREY_CAR_PARK,ELECTRONIC_PARKING,WHOLE_DAY,SUN_&_PH_FR_7AM-10.30PM,1,10,2.15,0,401,1.394862519,103.912585,PUNGGOL,3.0
470,BLK 180 EDGEFIELD PLAINS,36463.3164,42276.7143,MULTI-STOREY_CAR_PARK,ELECTRONIC_PARKING,WHOLE_DAY,SUN_&_PH_FR_7AM-10.30PM,1,8,2.15,0,472,1.398608857,103.9093683,PUNGGOL,3.0
471,BLK 642 PUNGGOL DRIVE,37244.6093,42288.7308,MULTI-STOREY_CAR_PARK,ELECTRONIC_PARKING,WHOLE_DAY,SUN_&_PH_FR_7AM-10.30PM,1,10,2.15,0,472,1.398717291,103.9163889,PUNGGOL,3.0
472,BLK 162 PUNGGOL CENTRAL,37013.9934,41998.5248,MULTI-STOREY_CAR_PARK,ELECTRONIC_PARKING,WHOLE_DAY,SUN_&_PH_FR_7AM-10.30PM,1,10,2.15,0,472,1.396092847,103.9143165,PUNGGOL,3.0
473,"BLK 186-188,190-192 PUNGGOL CENTRAL",36545.1733,42395.6863,OTHERS,ELECTRONIC_PARKING,7AM-7PM,NO,0,2,2.15,1,472,1.399684772,103.9101039,PUNGGOL,10.0
474,BLK 638 PUNGGOL DRIVE,37111.8432,42381.4517,MULTI-STOREY_CAR_PARK,ELECTRONIC_PARKING,WHOLE_DAY,SUN_&_PH_FR_7AM-10.30PM,1,10,2.15,0,472,1.399555867,103.9151959,PUNGGOL,3.0
475,BLK 166 PUNGGOL CENTRAL,37141.8926,41874.4571,MULTI-STOREY_CAR_PARK,ELECTRONIC_PARKING,WHOLE_DAY,SUN_&_PH_FR_7AM-10.30PM,1,10,2.15,0,472,1.394970785,103.9154658,PUNGGOL,3.0
476,BLK 644 PUNGGOL CENTRAL,37191.4597,42180.6537,MULTI-STOREY_CAR_PARK,ELECTRONIC_PARKING,WHOLE_DAY,SUN_&_PH_FR_7AM-10.30PM,1,4,2.1,0,472,1.397739898,103.9159112,PUNGGOL,3.0
477,BLK 201 PUNGGOL FIELD,35831.2383,42404.7448,MULTI-STOREY_CAR_PARK,ELECTRONIC_PARKING,WHOLE_DAY,SUN_&_PH_FR_7AM-10.30PM,1,8,2.15,0,446,1.399766897,103.9036886,PUNGGOL,3.0
478,BLK 178 & 193 EDGEFIELD PLAINS,36348.4338,42380.9942,OTHERS,ELECTRONIC_PARKING,7AM-7PM,NO,0,2,2.15,1,472,1.39955196,103.908336,PUNGGOL,10.0
479,BLK 172 EDGEDALE PLAINS,36731.4595,41935.1533,MULTI-STOREY_CAR_PARK,ELECTRONIC_PARKING,WHOLE_DAY,SUN_&_PH_FR_7AM-10.30PM,1,8,2.15,0,401,1.395519826,103.9117777,PUNGGOL,3.0
480,BLK 650 PUNGGOL CENTRAL,37123.7973,42130.2229,MULTI-STOREY_CAR_PARK,ELECTRONIC_PARKING,WHOLE_DAY,SUN_&_PH_FR_7AM-10.30PM,1,4,2.15,0,472,1.397283842,103.9153032,PUNGGOL,3.0
481,BLK 204 PUNGGOL FIELD,35762.7151,42260.5799,MULTI-STOREY_CAR_PARK,ELECTRONIC_PARKING,WHOLE_DAY,SUN_&_PH_FR_7AM-10.30PM,1,8,2.15,0,407,1.398463141,103.9030729,PUNGGOL,3.0
482,BLK 194 PUNGGOL ROAD,36145.8836,42652.6976,MULTI-STOREY_CAR_PARK,ELECTRONIC_PARKING,WHOLE_DAY,SUN_&_PH_FR_7AM-10.30PM,1,10,2.15,0,445,1.402009204,103.906516,PUNGGOL,3.0
483,BLK 633 PUNGGOL DRIVE,36897.0646,42490.1374,OTHERS,ELECTRONIC_PARKING,7AM-10.30PM,NO,0,1,2.15,1,472,1.400538847,103.913266,PUNGGOL,10.0
484,BLK 170D PUNGGOL EAST,36989.2194,41806.2447,OTHERS,ELECTRONIC_PARKING,7AM-10.30PM,NO,0,1,2.15,1,401,1.394353945,103.9140938,PUNGGOL,10.0
485,BLK 301 PUNGGOL CENTRAL,36110.4866,42837.2882,MULTI-STOREY_CAR_PARK,ELECTRONIC_PARKING,NO,NO,1,8,2.15,0,447,1.403678583,103.906198,PUNGGOL,3.0
486,BLK 302 PUNGGOL PLACE,35933.3863,42966.5081,MULTI-STOREY_CAR_PARK,ELECTRONIC_PARKING,NO,NO,1,10,2.15,0,477,1.40484725,103.9046067,PUNGGOL,3.0
487,BLK 603 PUNGGOL ROAD,36309.071,42857.6068,MULTI-STOREY_CAR_PARK,ELECTRONIC_PARKING,WHOLE_DAY,SUN_&_PH_FR_7AM-10.30PM,1,10,2.15,0,466,1.403862281,103.9079825,PUNGGOL,3.0
488,BLK 602 PUNGGOL CENTRAL,36232.401,42775.4525,MULTI-STOREY_CAR_PARK,ELECTRONIC_PARKING,WHOLE_DAY,SUN_&_PH_FR_7AM-10.30PM,1,10,2.15,0,445,1.403119329,103.9072935,PUNGGOL,3.0
489,BLK 305 PUNGGOL ROAD,36113.2644,43096.1637,OTHERS,ELECTRONIC_PARKING,WHOLE_DAY,NO,1,1,2.15,0,477,1.406019757,103.9062231,PUNGGOL,10.0
490,BLK 614 EDGEFIELD PLAINS,36495.4409,42788.2417,MULTI-STOREY_CAR_PARK,ELECTRONIC_PARKING,WHOLE_DAY,SUN_&_PH_FR_7AM-10.30PM,1,13,2.15,0,466,1.403234914,103.9096571,PUNGGOL,3.0
491,BLK 612 PUNGGOL DRIVE,36381.5675,42939.0974,MULTI-STOREY_CAR_PARK,ELECTRONIC_PARKING,WHOLE_DAY,SUN_&_PH_FR_7AM-10.30PM,1,12,2.15,0,466,1.404599231,103.9086339,PUNGGOL,3.0
492,BLK 267 PUNGGOL FIELD,35192.9049,42872.8244,MULTI-STOREY_CAR_PARK,ELECTRONIC_PARKING,WHOLE_DAY,NO,1,3,2.15,0,423,1.404000204,103.8979528,PUNGGOL,3.0
493,BLK 270 PUNGGOL FIELD,35326.1743,42841.9622,MULTI-STOREY_CAR_PARK,ELECTRONIC_PARKING,7AM-10.30PM,NO,0,2,2.15,0,242,1.403721064,103.8991503,PUNGGOL,3.0
494,BLK 273 PUNGGOL PLACE,35636.9282,42723.6586,MULTI-STOREY_CAR_PARK,ELECTRONIC_PARKING,WHOLE_DAY,NO,1,2,2.15,0,452,1.402651088,103.9019427,PUNGGOL,3.0
495,BLK 616 PUNGGOL DRIVE,36722.4823,42665.6779,MULTI-STOREY_CAR_PARK,ELECTRONIC_PARKING,7AM-10.30PM,NO,0,2,2.15,0,472,1.402126424,103.9116973,PUNGGOL,3.0
496,BLK 288 PUNGGOL PLACE,35765.2615,42620.0879,OTHERS,ELECTRONIC_PARKING,WHOLE_DAY,NO,1,1,2.15,0,417,1.401714399,103.9030958,PUNGGOL,10.0
497,BLK 169 PUNGGOL FIELD,37034.4487,41726.1275,MULTI-STOREY_CAR_PARK,ELECTRONIC_PARKING,7AM-10.30PM,NO,0,2,2.15,0,401,1.39362938,103.9145002,PUNGGOL,3.0
498,BLK 624 PUNGGOL CENTRAL,36714.9868,42459.2349,OTHERS,ELECTRONIC_PARKING,7AM-10.30PM,NO,0,1,2.15,0,472,1.400259432,103.9116298,PUNGGOL,10.0
499,BLK 207 PUNGGOL PLACE,35522.7156,42499.8392,MULTI-STOREY_CAR_PARK,ELECTRONIC_PARKING,7AM-10.30PM,NO,0,7,2.15,0,341,1.400626978,103.9009163,PUNGGOL,3.0
500,BLK 271 PUNGGOL WALK,35463.4411,42762.8004,OTHERS,ELECTRONIC_PARKING,7AM-10.30PM,NO,0,1,2.15,0,464,1.403005118,103.9003838,PUNGGOL,10.0
501,BLK 210 PUNGGOL PLACE,35464.3471,42355.1566,MULTI-STOREY_CAR_PARK,ELECTRONIC_PARKING,7AM-10.30PM,NO,0,11,2.15,0,259,1.399318536,103.9003918,PUNGGOL,3.0
502,BLK 211 PUNGGOL WALK,35358.2193,42587.4444,MULTI-STOREY_CAR_PARK,ELECTRONIC_PARKING,7AM-10.30PM,NO,0,6,2.15,0,195,1.401419289,103.8994382,PUNGGOL,3.0
503,BLK 213 PUNGGOL WALK,35273.4071,42431.6579,MULTI-STOREY_CAR_PARK,ELECTRONIC_PARKING,WHOLE_DAY,SUN_&_PH_FR_7AM-10.30PM,1,11,2.15,0,333,1.400010435,103.8986761,PUNGGOL,3.0
504,BLK 312 SUMANG LINK,35583.2467,43557.8383,MULTI-STOREY_CAR_PARK,ELECTRONIC_PARKING,WHOLE_DAY,SUN_&_PH_FR_7AM-10.30PM,1,13,2.15,0,385,1.410195118,103.9014605,PUNGGOL,3.0
505,BLK 266 PUNGGOL WAY,35221.6263,43013.9553,MULTI-STOREY_CAR_PARK,ELECTRONIC_PARKING,WHOLE_DAY,NO,1,2,2.15,0,429,1.405276533,103.8982109,PUNGGOL,3.0
506,BLK 259 PUNGGOL FIELD,34902.6149,42928.77,MULTI-STOREY_CAR_PARK,ELECTRONIC_PARKING,WHOLE_DAY,SUN_&_PH_FR_7AM-10.30PM,1,14,2.15,0,497,1.404506226,103.8953443,PUNGGOL,3.0
507,BLK 261 PUNGGOL WAY,35069.2354,43028.1349,MULTI-STOREY_CAR_PARK,ELECTRONIC_PARKING,WHOLE_DAY,NO,1,11,2.15,0,363,1.405404806,103.8968416,PUNGGOL,3.0
508,BLK 672 EDGEFIELD PLAINS,36726.0925,43212.3119,MULTI-STOREY_CAR_PARK,ELECTRONIC_PARKING,WHOLE_DAY,SUN_&_PH_FR_7AM-10.30PM,1,16,2.15,0,466,1.407069979,103.9117299,PUNGGOL,3.0
509,BLK 665 PUNGGOL DRIVE,37055.2239,42642.9595,MULTI-STOREY_CAR_PARK,ELECTRONIC_PARKING,WHOLE_DAY,SUN_&_PH_FR_7AM-10.30PM,1,2,2.15,0,472,1.401920865,103.9146872,PUNGGOL,3.0
510,663  PUNGGOL DRIVE,37289.3261,42421.1514,MULTI-STOREY_CAR_PARK,ELECTRONIC_PARKING,WHOLE_DAY,SUN_&_PH_FR_7AM-10.30PM,1,13,2.15,0,472,1.399914839,103.9167907,PUNGGOL,3.0
511,BLK 308 PUNGGOL WALK,35282.797,43327.1927,OTHERS,ELECTRONIC_PARKING,WHOLE_DAY,NO,1,1,2.15,1,352,1.408109322,103.8987607,PUNGGOL,10.0
512,BLK 670 EDGEFIELD PLAINS,36896.1695,43074.4327,MULTI-STOREY_CAR_PARK,ELECTRONIC_PARKING,WHOLE_DAY,SUN_&_PH_FR_7AM-10.30PM,1,14,2.15,0,466,1.405822999,103.9132581,PUNGGOL,3.0
513,BLK 678 PUNGGOL DRIVE,36410.0435,43106.6938,MULTI-STOREY_CAR_PARK,ELECTRONIC_PARKING,WHOLE_DAY,NO,1,2,2.15,0,447,1.406114903,103.9088899,PUNGGOL,3.0
514,BLK 256 SUMANG WALK,34923.1009,43042.4085,MULTI-STOREY_CAR_PARK,ELECTRONIC_PARKING,WHOLE_DAY,SUN_&_PH_FR_7AM-10.30PM,1,12,2.15,0,300,1.405533926,103.8955284,PUNGGOL,3.0
515,BLK 677 PUNGGOL DRIVE,36486.8089,43065.2274,MULTI-STOREY_CAR_PARK,ELECTRONIC_PARKING,WHOLE_DAY,NO,1,2,2.15,0,466,1.405739873,103.9095797,PUNGGOL,3.0
516,BLK 676 PUNGGOL DRIVE,36557.4238,43015.7992,MULTI-STOREY_CAR_PARK,ELECTRONIC_PARKING,WHOLE_DAY,NO,1,3,2.15,0,466,1.405292842,103.9102142,PUNGGOL,3.0
517,BLK 310 PUNGGOL WALK,35389.8621,43509.9902,OTHERS,ELECTRONIC_PARKING,WHOLE_DAY,NO,1,1,2.15,0,352,1.409762448,103.8997228,PUNGGOL,10.0
518,BLK 121 EDGEDALE PLAINS,36352.1816,41721.0087,MULTI-STOREY_CAR_PARK,ELECTRONIC_PARKING,WHOLE_DAY,SUN_&_PH_FR_7AM-10.30PM,1,11,2.15,0,401,1.393583292,103.9083695,PUNGGOL,3.0
519,BLK 314 PUNGGOL WAY,35143.9937,43367.4988,MULTI-STOREY_CAR_PARK,ELECTRONIC_PARKING,WHOLE_DAY,SUN_&_PH_FR_7AM-10.30PM,1,2,2.15,0,403,1.40847387,103.8975134,PUNGGOL,3.0
520,BLK 217 SUMANG WALK,34935.4135,42745.609,MULTI-STOREY_CAR_PARK,ELECTRONIC_PARKING,WHOLE_DAY,NO,1,16,2.15,0,370,1.402849777,103.895639,PUNGGOL,3.0
521,BLK 661 EDGEDALE PLAINS,37380.9995,42710.8525,MULTI-STOREY_CAR_PARK,ELECTRONIC_PARKING,WHOLE_DAY,SUN_&_PH_FR_7AM-10.30PM,1,13,2.15,0,472,1.40253476,103.9176146,PUNGGOL,3.0
522,BLK 226 SUMANG LANE,34673.3293,42770.8483,MULTI-STOREY_CAR_PARK,ELECTRONIC_PARKING,WHOLE_DAY,NO,1,2,2.15,0,383,1.403078094,103.893284,PUNGGOL,3.0
523,BLK 682 EDGEDALE PLAINS EDGEDALE PLAINS,37178.9151,42875.7489,MULTI-STOREY_CAR_PARK,ELECTRONIC_PARKING,WHOLE_DAY,SUN_&_PH_FR_7AM-10.30PM,1,16,2.15,0,472,1.404026087,103.9157987,PUNGGOL,3.0
524,BLK 222 SUMANG LANE SUMANG LANE,34784.0419,42552.2276,MULTI-STOREY_CAR_PARK,COUPON_PARKING,WHOLE_DAY,SUN_&_PH_FR_7AM-10.30PM,1,13,2.15,0,750,1.401100942,103.8942788,PUNGGOL,3.0
525,BLK 233 SUMANG LANE,34486.264,42569.8371,MULTI-STOREY_CAR_PARK,COUPON_PARKING,WHOLE_DAY,SUN_&_PH_FR_7AM-10.30PM,1,7,2.15,0,650,1.401260265,103.891603,PUNGGOL,3.0
526,BLK 325 SUMANG WALK,35281.7517,43917.728,MULTI-STOREY_CAR_PARK,ELECTRONIC_PARKING,WHOLE_DAY,SUN_&_PH_FR_7AM-10.30PM,1,15,2.15,0,403,1.413449907,103.8987514,PUNGGOL,3.0
527,BLK 326 SUMANG WALK SUMANG WALK,35345.9447,43901.2419,MULTI-STOREY_CAR_PARK,ELECTRONIC_PARKING,WHOLE_DAY,SUN_&_PH_FR_7AM-10.30PM,1,6,2.15,0,352,1.413300796,103.8993283,PUNGGOL,3.0
528,BLK 659 PUNGGOL EAST ROAD,37596.6187,42542.5155,MULTI-STOREY_CAR_PARK,ELECTRONIC_PARKING,WHOLE_DAY,SUN_&_PH_FR_7AM-10.30PM,1,14,2.15,0,472,1.401012311,103.919552,PUNGGOL,3.0
529,BLK 322 SUMANG WALK,35143.0392,43671.1572,MULTI-STOREY_CAR_PARK,ELECTRONIC_PARKING,WHOLE_DAY,SUN_&_PH_FR_7AM-10.30PM,1,13,2.15,0,403,1.411220046,103.8975049,PUNGGOL,3.0
530,BLK 407A-407B NORTHSHORE WALK,35655.2525,44286.5897,MULTI-STOREY_CAR_PARK,ELECTRONIC_PARKING,WHOLE_DAY,NO,1,2,2.15,0,352,1.416785659,103.9021078,PUNGGOL,3.0
531,BLK 421A NORTHSHORE DRIVE,35919.5379,44619.0472,OTHERS,ELECTRONIC_PARKING,WHOLE_DAY,NO,1,4,2.15,1,352,1.41979221,103.9044827,PUNGGOL,10.0
532,473A PASIR RIS DR 6,41720.207,39587.085,MULTI-STOREY_CAR_PARK,ELECTRONIC_PARKING,WHOLE_DAY,SUN_&_PH_FR_7AM-10.30PM,1,12,2.15,0,422,1.374282852,103.9566044,PASIR RIS,3.0
533,BLK 204A PASIR RIS STREET 21,42373.461,38753.7772,MULTI-STOREY_CAR_PARK,ELECTRONIC_PARKING,7AM-10.30PM,SUN_&_PH_FR_7AM-10.30PM,0,10,1.9,0,422,1.366746421,103.962474,PASIR RIS,3.0
534,BLK 269A PASIR RIS STREET 21,42482.8751,38537.8136,MULTI-STOREY_CAR_PARK,ELECTRONIC_PARKING,WHOLE_DAY,SUN_&_PH_FR_7AM-10.30PM,1,8,1.9,0,416,1.364793275,103.963457,PASIR RIS,3.0
535,BLK 272A PASIR RIS STREET 21,42657.807,38550.2316,MULTI-STOREY_CAR_PARK,ELECTRONIC_PARKING,WHOLE_DAY,SUN_&_PH_FR_7AM-10.30PM,1,6,1.9,0,416,1.364905493,103.9650289,PASIR RIS,3.0
536,BLK 199A PASIR RIS STREET 12,42053.3726,38723.5879,MULTI-STOREY_CAR_PARK,ELECTRONIC_PARKING,WHOLE_DAY,SUN_&_PH_FR_7AM-10.30PM,1,12,1.9,0,422,1.366473555,103.9595977,PASIR RIS,3.0
537,BLK 180A PASIR RIS STREET 11,42109.8791,38528.4122,MULTI-STOREY_CAR_PARK,ELECTRONIC_PARKING,WHOLE_DAY,SUN_&_PH_FR_7AM-10.30PM,1,12,1.9,0,405,1.364708433,103.9601054,PASIR RIS,3.0
538,BLK 158A PASIR RIS STREET 13,42284.7957,38467.7932,MULTI-STOREY_CAR_PARK,ELECTRONIC_PARKING,WHOLE_DAY,SUN_&_PH_FR_7AM-10.30PM,1,10,2.0,0,405,1.364160134,103.9616771,PASIR RIS,3.0
539,BLK 149A PASIR RIS STREET 13,42400.9355,38268.6092,MULTI-STOREY_CAR_PARK,ELECTRONIC_PARKING,WHOLE_DAY,SUN_&_PH_FR_7AM-10.30PM,1,10,2.0,0,369,1.362358733,103.9627206,PASIR RIS,3.0
540,BLK 142A PASIR RIS STREET 11,42071.2657,38321.6853,MULTI-STOREY_CAR_PARK,ELECTRONIC_PARKING,WHOLE_DAY,SUN_&_PH_FR_7AM-10.30PM,1,10,2.0,0,405,1.362838891,103.9597583,PASIR RIS,3.0
541,BLK 135A PASIR RIS STREET 11,41750.9103,38533.7141,MULTI-STOREY_CAR_PARK,ELECTRONIC_PARKING,WHOLE_DAY,SUN_&_PH_FR_7AM-10.30PM,1,8,2.0,0,405,1.36475655,103.9568798,PASIR RIS,3.0
542,BLK 108A PASIR RIS STREET 12,41766.7964,38887.5806,MULTI-STOREY_CAR_PARK,ELECTRONIC_PARKING,WHOLE_DAY,SUN_&_PH_FR_7AM-10.30PM,1,12,2.0,0,422,1.367956778,103.9570227,PASIR RIS,3.0
543,BLK 220A PASIR RIS STREET 21,42210.8365,39121.6128,MULTI-STOREY_CAR_PARK,ELECTRONIC_PARKING,WHOLE_DAY,SUN_&_PH_FR_7AM-10.30PM,1,10,1.9,0,422,1.370073066,103.9610129,PASIR RIS,3.0
544,BLK 526 PASIR RIS STREET 51,40702.1342,38896.9108,MULTI-STOREY_CAR_PARK,ELECTRONIC_PARKING,WHOLE_DAY,NO,1,13,2.15,0,436,1.368041633,103.947456,PASIR RIS,3.0
545,BLK 530 PASIR RIS DR 1,40920.1747,39245.8244,MULTI-STOREY_CAR_PARK,ELECTRONIC_PARKING,NO,NO,1,15,2.15,0,406,1.371196982,103.9494154,PASIR RIS,3.0
546,BLK 555A PASIR RIS STREET 51,41231.6084,38954.5238,MULTI-STOREY_CAR_PARK,ELECTRONIC_PARKING,WHOLE_DAY,SUN_&_PH_FR_7AM-10.30PM,1,10,2.0,0,422,1.368562431,103.9522137,PASIR RIS,3.0
547,BLK 564A PASIR RIS STREET 51,40930.0174,38967.7033,MULTI-STOREY_CAR_PARK,ELECTRONIC_PARKING,WHOLE_DAY,SUN_&_PH_FR_7AM-10.30PM,1,11,2.0,0,422,1.368681755,103.9495037,PASIR RIS,3.0
548,BLK 561A PASIR RIS STREET 51,41131.632,38802.2291,MULTI-STOREY_CAR_PARK,ELECTRONIC_PARKING,WHOLE_DAY,SUN_&_PH_FR_7AM-10.30PM,1,8,2.0,0,422,1.36718518,103.9513153,PASIR RIS,3.0
549,BLK 500A PASIR RIS STREET 52,40496.5258,39820.0373,MULTI-STOREY_CAR_PARK,ELECTRONIC_PARKING,WHOLE_DAY,NO,1,13,1.9,0,506,1.376390131,103.9456089,PASIR RIS,3.0
550,BLK 521A PASIR RIS STREET 52,40316.681,39541.0967,MULTI-STOREY_CAR_PARK,ELECTRONIC_PARKING,WHOLE_DAY,SUN_&_PH_FR_7AM-10.30PM,1,11,1.9,0,449,1.373867573,103.9439927,PASIR RIS,3.0
551,BLK 578A PASIR RIS STREET 53,40606.3885,39551.3513,MULTI-STOREY_CAR_PARK,ELECTRONIC_PARKING,WHOLE_DAY,SUN_&_PH_FR_7AM-10.30PM,1,11,2.0,0,324,1.373960189,103.946596,PASIR RIS,3.0
552,BLK 586A PASIR RIS STREET 53,40736.5955,39633.1743,MULTI-STOREY_CAR_PARK,ELECTRONIC_PARKING,WHOLE_DAY,SUN_&_PH_FR_7AM-10.30PM,1,10,2.0,0,420,1.374700109,103.947766,PASIR RIS,3.0
553,BLK 601A ELIAS ROAD,40247.7753,39924.3544,MULTI-STOREY_CAR_PARK,ELECTRONIC_PARKING,WHOLE_DAY,SUN_&_PH_FR_7AM-10.30PM,1,10,1.9,0,410,1.377333641,103.9433737,PASIR RIS,3.0
554,BLK 225A PASIR RIS STREET 21,42201.9401,39312.6071,MULTI-STOREY_CAR_PARK,ELECTRONIC_PARKING,WHOLE_DAY,SUN_&_PH_FR_7AM-10.30PM,1,13,1.9,0,422,1.37180035,103.960933,PASIR RIS,3.0
555,BLK 614A ELIAS ROAD,40114.6224,39748.7266,MULTI-STOREY_CAR_PARK,ELECTRONIC_PARKING,7AM-10.30PM,NO,0,10,1.9,0,446,1.375745384,103.9421772,PASIR RIS,3.0
556,BLK 631A PASIR RIS DRIVE 3,39883.2972,40142.5172,MULTI-STOREY_CAR_PARK,ELECTRONIC_PARKING,WHOLE_DAY,SUN_&_PH_FR_7AM-10.30PM,1,11,2.0,0,384,1.379306774,103.9400987,PASIR RIS,3.0
557,BLK 635A PASIR RIS DRIVE 1,39858.5997,39896.3925,MULTI-STOREY_CAR_PARK,ELECTRONIC_PARKING,WHOLE_DAY,SUN_&_PH_FR_7AM-10.30PM,1,11,2.0,0,454,1.377080924,103.9398767,PASIR RIS,3.0
558,BLK 649A PASIR RIS DRIVE 10,39728.975,39998.0806,MULTI-STOREY_CAR_PARK,ELECTRONIC_PARKING,WHOLE_DAY,SUN_&_PH_FR_7AM-10.30PM,1,11,2.0,0,445,1.378000605,103.938712,PASIR RIS,3.0
559,BLK 700A PASIR RIS DRIVE 10,39721.1068,40304.2524,MULTI-STOREY_CAR_PARK,ELECTRONIC_PARKING,WHOLE_DAY,SUN_&_PH_FR_7AM-10.30PM,1,10,1.9,0,366,1.380769512,103.9386414,PASIR RIS,3.0
560,BLK 710A PASIR RIS STREET 72,39546.2838,40486.3671,MULTI-STOREY_CAR_PARK,ELECTRONIC_PARKING,WHOLE_DAY,SUN_&_PH_FR_7AM-10.30PM,1,10,2.0,0,379,1.382416559,103.9370705,PASIR RIS,3.0
561,BLK 718A PASIR RIS STREET 72,39429.3197,40431.9844,MULTI-STOREY_CAR_PARK,ELECTRONIC_PARKING,WHOLE_DAY,SUN_&_PH_FR_7AM-10.30PM,1,10,2.0,0,360,1.381924788,103.9360195,PASIR RIS,3.0
562,BLK 736A PASIR RIS DRIVE 10,39565.4411,40102.7854,MULTI-STOREY_CAR_PARK,ELECTRONIC_PARKING,WHOLE_DAY,SUN_&_PH_FR_7AM-10.30PM,1,10,2.0,0,244,1.378947581,103.9372425,PASIR RIS,3.0
563,BLK 231A PASIR RIS DRIVE 4,42258.6513,39567.5489,MULTI-STOREY_CAR_PARK,ELECTRONIC_PARKING,WHOLE_DAY,SUN_&_PH_FR_7AM-10.30PM,1,10,1.9,0,422,1.374105919,103.9614427,PASIR RIS,3.0
564,BLK 744A PASIR RIS STREET 71,39358.5759,39992.2049,MULTI-STOREY_CAR_PARK,ELECTRONIC_PARKING,7AM-10.30PM,SUN_&_PH_FR_7AM-10.30PM,0,11,2.0,0,350,1.377947613,103.9353837,PASIR RIS,3.0
565,BLK 747A PASIR RIS STREET 71,39214.3187,40090.5883,MULTI-STOREY_CAR_PARK,ELECTRONIC_PARKING,WHOLE_DAY,SUN_&_PH_FR_7AM-10.30PM,1,9,2.0,0,363,1.378837412,103.9340874,PASIR RIS,3.0
566,BLK 757A PASIR RIS ST 71,39108.47,39913.5495,MULTI-STOREY_CAR_PARK,ELECTRONIC_PARKING,WHOLE_DAY,SUN_&_PH_FR_7AM-10.30PM,1,9,2.0,0,346,1.377236379,103.9331363,PASIR RIS,3.0
567,BLK 762A PASIR RIS STREET 71,39126.6463,39773.0358,MULTI-STOREY_CAR_PARK,ELECTRONIC_PARKING,WHOLE_DAY,SUN_&_PH_FR_7AM-10.30PM,1,9,2.0,0,350,1.375965618,103.9332995,PASIR RIS,3.0
568,BLK 773A PASIR RIS STREET 71,39416.5981,39622.2609,MULTI-STOREY_CAR_PARK,ELECTRONIC_PARKING,WHOLE_DAY,SUN_&_PH_FR_7AM-10.30PM,1,10,2.0,0,518,1.374601955,103.9359049,PASIR RIS,3.0
569,BLK 782A PASIR RIS STREET 71,39692.8318,39469.9703,MULTI-STOREY_CAR_PARK,ELECTRONIC_PARKING,7AM-10.30PM,SUN_&_PH_FR_7AM-10.30PM,0,8,2.0,0,235,1.373224587,103.938387,PASIR RIS,3.0
570,BLK 235A PASIR RIS STREET 21,42388.3371,39530.4506,MULTI-STOREY_CAR_PARK,ELECTRONIC_PARKING,WHOLE_DAY,SUN_&_PH_FR_7AM-10.30PM,1,10,1.9,0,422,1.373770353,103.962608,PASIR RIS,3.0
571,BLK 245A PASIR RIS STREET 21,42477.8773,39204.2227,MULTI-STOREY_CAR_PARK,ELECTRONIC_PARKING,WHOLE_DAY,SUN_&_PH_FR_7AM-10.30PM,1,10,1.9,0,422,1.370820028,103.9634124,PASIR RIS,3.0
572,BLK 257A PASIR RIS STREET 21,42459.8111,38843.4823,MULTI-STOREY_CAR_PARK,ELECTRONIC_PARKING,WHOLE_DAY,SUN_&_PH_FR_7AM-10.30PM,1,8,1.9,0,422,1.367557638,103.9632499,PASIR RIS,3.0
573,BLK 458A PASIR RIS DRIVE 4,42126.5924,39294.429,MULTI-STOREY_CAR_PARK,ELECTRONIC_PARKING,WHOLE_DAY,SUN_&_PH_FR_7AM-10.30PM,1,10,2.0,0,422,1.37163599,103.9602559,PASIR RIS,3.0
574,BLK 216A PASIR RIS STREET 21,42233.462,38924.6687,MULTI-STOREY_CAR_PARK,ELECTRONIC_PARKING,WHOLE_DAY,SUN_&_PH_FR_7AM-10.30PM,1,9,2.0,0,422,1.368291967,103.9612161,PASIR RIS,3.0
575,BLK 33 PARK CRESCENT MSCP,28996.2194,29764.092,MULTI-STOREY_CAR_PARK,ELECTRONIC_PARKING,WHOLE_DAY,NO,1,7,2.15,0,488,1.285450368,103.84227,OUTRAM,3.0
